{"features": [{"id": -7.403321026197395, "properties": {"Name": "Aird Mhor Barra Ferry Terminal"}, "geometry": {"coordinates": [-7.403321026197395, 57.00860920657382], "type": "Point"}, "type": "Feature"}, {"id": -5.180553731145978, "properties": {"Name": "Altnaharrie Ferry Landing"}, "geometry": {"coordinates": [-5.180553731145978, 57.88721029215695], "type": "Point"}, "type": "Feature"}, {"id": -4.720262755287245, "properties": {"Name": "Ardlui Pier"}, "geometry": {"coordinates": [-4.720262755287245, 56.30258896168791], "type": "Point"}, "type": "Feature"}, {"id": -2.962372154736548, "properties": {"Name": "Ambleside Waterhead Ferry Landing"}, "geometry": {"coordinates": [-2.962372154736548, 54.41963405446384], "type": "Point"}, "type": "Feature"}, {"id": -5.733867346701962, "properties": {"Name": "Gigha Ferry Terminal"}, "geometry": {"coordinates": [-5.733867346701962, 55.677621674855374], "type": "Point"}, "type": "Feature"}, {"id": -5.003162006602466, "properties": {"Name": "Place Ferry Landing"}, "geometry": {"coordinates": [-5.003162006602466, 50.153372714926405], "type": "Point"}, "type": "Feature"}, {"id": -4.190472185002757, "properties": {"Name": "Appledore Ferry Landing"}, "geometry": {"coordinates": [-4.190472185002757, 51.053788434171935], "type": "Point"}, "type": "Feature"}, {"id": -4.8241539811886405, "properties": {"Name": "Ardrossan Ferry Terminal"}, "geometry": {"coordinates": [-4.8241539811886405, 55.64020516615004], "type": "Point"}, "type": "Feature"}, {"id": -4.824202227964064, "properties": {"Name": "Ardrossan Ferry Terminal"}, "geometry": {"coordinates": [-4.824202227964064, 55.640213043942275], "type": "Point"}, "type": "Feature"}, {"id": -5.24267640706334, "properties": {"Name": "Ardgour Ferry Terminal"}, "geometry": {"coordinates": [-5.24267640706334, 56.7220308222176], "type": "Point"}, "type": "Feature"}, {"id": -5.84757129926699, "properties": {"Name": "Arisaig Ferry Landing"}, "geometry": {"coordinates": [-5.84757129926699, 56.909630802284745], "type": "Point"}, "type": "Feature"}, {"id": -5.894743055112744, "properties": {"Name": "Armadale Ferry Terminal"}, "geometry": {"coordinates": [-5.894743055112744, 57.0645961711102], "type": "Point"}, "type": "Feature"}, {"id": -5.89338556437838, "properties": {"Name": "Armadale Ferry Terminal"}, "geometry": {"coordinates": [-5.89338556437838, 57.06487220510659], "type": "Point"}, "type": "Feature"}, {"id": -2.5965385640896033, "properties": {"Name": "Arnolfini Ferry Landing"}, "geometry": {"coordinates": [-2.5965385640896033, 51.449020749706804], "type": "Point"}, "type": "Feature"}, {"id": -3.132475754966985, "properties": {"Name": "Ashness Gate Derwentwater Ferry Landing"}, "geometry": {"coordinates": [-3.132475754966985, 54.57346221584236], "type": "Point"}, "type": "Feature"}, {"id": -4.639805038358177, "properties": {"Name": "Ayr Compass Pier"}, "geometry": {"coordinates": [-4.639805038358177, 55.46821383966175], "type": "Point"}, "type": "Feature"}, {"id": -5.382574394167215, "properties": {"Name": "Badluarach Ferry Landing"}, "geometry": {"coordinates": [-5.382574394167215, 57.897552805962974], "type": "Point"}, "type": "Feature"}, {"id": -4.590765741928722, "properties": {"Name": "Balloch Pier"}, "geometry": {"coordinates": [-4.590765741928722, 56.00817223337737], "type": "Point"}, "type": "Feature"}, {"id": -3.8708513002691376, "properties": {"Name": "Bantham Ferry Landing"}, "geometry": {"coordinates": [-3.8708513002691376, 50.27876376032571], "type": "Point"}, "type": "Feature"}, {"id": -4.051780910181261, "properties": {"Name": "Barmouth Ferry Landing"}, "geometry": {"coordinates": [-4.051780910181261, 52.71906123533328], "type": "Point"}, "type": "Feature"}, {"id": -3.167539942437239, "properties": {"Name": "Barrage South Waterbus Stop"}, "geometry": {"coordinates": [-3.167539942437239, 51.445667739701484], "type": "Point"}, "type": "Feature"}, {"id": -3.2739929712888713, "properties": {"Name": "Barry Waterfront Ferry Terminal"}, "geometry": {"coordinates": [-3.2739929712888713, 51.39955361625697], "type": "Point"}, "type": "Feature"}, {"id": -2.59768764845095, "properties": {"Name": "Bristol City Centre Ferry Landing"}, "geometry": {"coordinates": [-2.59768764845095, 51.45216197221258], "type": "Point"}, "type": "Feature"}, {"id": -4.588990440169555, "properties": {"Name": "Balloch Castle Pier"}, "geometry": {"coordinates": [-4.588990440169555, 56.01256876774604], "type": "Point"}, "type": "Feature"}, {"id": -2.992088429165141, "properties": {"Name": "Bridgwater Ferry Terminal"}, "geometry": {"coordinates": [-2.992088429165141, 51.14303737418371], "type": "Point"}, "type": "Feature"}, {"id": 1.3945042171406512, "properties": {"Name": "Bawdsey Ferry Landing"}, "geometry": {"coordinates": [1.3945042171406512, 51.99044327939986], "type": "Point"}, "type": "Feature"}, {"id": -2.497358180922321, "properties": {"Name": "Belvedere Ferry Landing"}, "geometry": {"coordinates": [-2.497358180922321, 55.18926763713185], "type": "Point"}, "type": "Feature"}, {"id": -5.906154749884452, "properties": {"Name": "Broadford Ferry Terminal"}, "geometry": {"coordinates": [-5.906154749884452, 57.24756135633847], "type": "Point"}, "type": "Feature"}, {"id": -2.9310998647663413, "properties": {"Name": "Bowness Ferry Nab Ferry Landing"}, "geometry": {"coordinates": [-2.9310998647663413, 54.35422590033798], "type": "Point"}, "type": "Feature"}, {"id": -0.10564855261574728, "properties": {"Name": "Blackfriars Pier"}, "geometry": {"coordinates": [-0.10564855261574728, 51.510856294571184], "type": "Point"}, "type": "Feature"}, {"id": -3.162650766163034, "properties": {"Name": "Barrage North Waterbus Stop"}, "geometry": {"coordinates": [-3.162650766163034, 51.454861156606334], "type": "Point"}, "type": "Feature"}, {"id": 0.04169476446434043, "properties": {"Name": "Barrier Gardens Pier"}, "geometry": {"coordinates": [0.04169476446434043, 51.49538926138], "type": "Point"}, "type": "Feature"}, {"id": -2.5926606133113426, "properties": {"Name": "Bathurst Basin Ferry Landing"}, "geometry": {"coordinates": [-2.5926606133113426, 51.448482942520684], "type": "Point"}, "type": "Feature"}, {"id": -0.8655315955482302, "properties": {"Name": "Bosham Hoe Ferry Landing"}, "geometry": {"coordinates": [-0.8655315955482302, 50.81264428816019], "type": "Point"}, "type": "Feature"}, {"id": -4.362114415339599, "properties": {"Name": "Braehead Shopping Centre Ferry Landing"}, "geometry": {"coordinates": [-4.362114415339599, 55.87619049269874], "type": "Point"}, "type": "Feature"}, {"id": -4.204120466375799, "properties": {"Name": "Bideford Ferry Landing"}, "geometry": {"coordinates": [-4.204120466375799, 51.01877157055408], "type": "Point"}, "type": "Feature"}, {"id": -4.895089542987651, "properties": {"Name": "Blairmore Pier Ferry Terminal"}, "geometry": {"coordinates": [-4.895089542987651, 55.99453998840746], "type": "Point"}, "type": "Feature"}, {"id": 1.023949774081008, "properties": {"Name": "Brightlingsea Ferry Landing"}, "geometry": {"coordinates": [1.023949774081008, 51.80538248641569], "type": "Point"}, "type": "Feature"}, {"id": -4.582478815454641, "properties": {"Name": "Balloch Village Ferry Landing"}, "geometry": {"coordinates": [-4.582478815454641, 56.00347460605017], "type": "Point"}, "type": "Feature"}, {"id": -4.263012974463864, "properties": {"Name": "Broomielaw Quay Ferry Terminal"}, "geometry": {"coordinates": [-4.263012974463864, 55.856465286621734], "type": "Point"}, "type": "Feature"}, {"id": -4.547944218587617, "properties": {"Name": "Balmaha Pier"}, "geometry": {"coordinates": [-4.547944218587617, 56.08360199043436], "type": "Point"}, "type": "Feature"}, {"id": -0.966778664930083, "properties": {"Name": "Belmont (Unst Shetland) Ferry Terminal"}, "geometry": {"coordinates": [-0.966778664930083, 60.6831193410024], "type": "Point"}, "type": "Feature"}, {"id": -7.180421596766346, "properties": {"Name": "Berneray Ferry Terminal"}, "geometry": {"coordinates": [-7.180421596766346, 57.70230215476145], "type": "Point"}, "type": "Feature"}, {"id": 0.8188269133987085, "properties": {"Name": "Burnham on Crouch Ferry Landing"}, "geometry": {"coordinates": [0.8188269133987085, 51.624349313946595], "type": "Point"}, "type": "Feature"}, {"id": -4.6300002686803845, "properties": {"Name": "Bodinnick Ferry Landing"}, "geometry": {"coordinates": [-4.6300002686803845, 50.33974144760406], "type": "Point"}, "type": "Feature"}, {"id": -2.9237264792725, "properties": {"Name": "Bowness on Windermere Ferry Terminal"}, "geometry": {"coordinates": [-2.9237264792725, 54.36300043327642], "type": "Point"}, "type": "Feature"}, {"id": -2.93884482844133, "properties": {"Name": "Far Sawrey Windermere Ferry Terminal"}, "geometry": {"coordinates": [-2.93884482844133, 54.353114349568926], "type": "Point"}, "type": "Feature"}, {"id": -2.591463985043455, "properties": {"Name": "Bristol Bridge Ferry Landing"}, "geometry": {"coordinates": [-2.591463985043455, 51.45387498364428], "type": "Point"}, "type": "Feature"}, {"id": -5.138910416496457, "properties": {"Name": "Brodick Isle of Arran Ferry Terminal"}, "geometry": {"coordinates": [-5.138910416496457, 55.577134373198085], "type": "Point"}, "type": "Feature"}, {"id": -5.139160866913104, "properties": {"Name": "Brodick Isle of Arran Ferry Terminal"}, "geometry": {"coordinates": [-5.139160866913104, 55.577289777184895], "type": "Point"}, "type": "Feature"}, {"id": -2.5888015170001912, "properties": {"Name": "Castle Park Ferry Landing"}, "geometry": {"coordinates": [-2.5888015170001912, 51.45499436162577], "type": "Point"}, "type": "Feature"}, {"id": -2.612477324606515, "properties": {"Name": "Bristol Marina Ferry Landing"}, "geometry": {"coordinates": [-2.612477324606515, 51.44859685301981], "type": "Point"}, "type": "Feature"}, {"id": -2.616353407904481, "properties": {"Name": "The Cottage Ferry Landing"}, "geometry": {"coordinates": [-2.616353407904481, 51.44684114175702], "type": "Point"}, "type": "Feature"}, {"id": -2.5989943119191437, "properties": {"Name": "Millennium Square Ferry Landing"}, "geometry": {"coordinates": [-2.5989943119191437, 51.448639566194544], "type": "Point"}, "type": "Feature"}, {"id": -2.6072744149849263, "properties": {"Name": "ss Great Britain Ferry Landing"}, "geometry": {"coordinates": [-2.6072744149849263, 51.44907351120379], "type": "Point"}, "type": "Feature"}, {"id": -2.613147538495414, "properties": {"Name": "Mardyke Ferry Landing"}, "geometry": {"coordinates": [-2.613147538495414, 51.44921377285016], "type": "Point"}, "type": "Feature"}, {"id": -3.017985964552756, "properties": {"Name": "Birkenhead Ferry Terminal"}, "geometry": {"coordinates": [-3.017985964552756, 53.402475650697355], "type": "Point"}, "type": "Feature"}, {"id": -2.617161635367582, "properties": {"Name": "Pumphouse Ferry Landing"}, "geometry": {"coordinates": [-2.617161635367582, 51.44808672918098], "type": "Point"}, "type": "Feature"}, {"id": -2.58392011169756, "properties": {"Name": "Temple Bridge (Bristol) Ferry Landing"}, "geometry": {"coordinates": [-2.58392011169756, 51.45254608288153], "type": "Point"}, "type": "Feature"}, {"id": -2.6180006276012042, "properties": {"Name": "Nova Scotia Ferry Landing"}, "geometry": {"coordinates": [-2.6180006276012042, 51.44734499180088], "type": "Point"}, "type": "Feature"}, {"id": -2.9460709188114804, "properties": {"Name": "Brockhole Ferry Landing"}, "geometry": {"coordinates": [-2.9460709188114804, 54.40106901329039], "type": "Point"}, "type": "Feature"}, {"id": -2.5969898724788676, "properties": {"Name": "Prince Street Bridge Ferry Landing"}, "geometry": {"coordinates": [-2.5969898724788676, 51.44831710279958], "type": "Point"}, "type": "Feature"}, {"id": -2.6084534594112476, "properties": {"Name": "Capricorn Quay Ferry Landing"}, "geometry": {"coordinates": [-2.6084534594112476, 51.45008345277709], "type": "Point"}, "type": "Feature"}, {"id": -2.5916289742752205, "properties": {"Name": "Redcliffe Back Ferry Landing"}, "geometry": {"coordinates": [-2.5916289742752205, 51.4521657387176], "type": "Point"}, "type": "Feature"}, {"id": -2.7042687114643322, "properties": {"Name": "Bristol Docks Ferry Landing"}, "geometry": {"coordinates": [-2.7042687114643322, 51.50444088284785], "type": "Point"}, "type": "Feature"}, {"id": -2.581359630991712, "properties": {"Name": "Temple Meads Station Ferry Landing"}, "geometry": {"coordinates": [-2.581359630991712, 51.45150679015453], "type": "Point"}, "type": "Feature"}, {"id": -2.59229896079786, "properties": {"Name": "Welsh Back Ferry Landing"}, "geometry": {"coordinates": [-2.59229896079786, 51.45278277807416], "type": "Point"}, "type": "Feature"}, {"id": -3.5123597157777766, "properties": {"Name": "Brixham Ferry Landing"}, "geometry": {"coordinates": [-3.5123597157777766, 50.39738609429865], "type": "Point"}, "type": "Feature"}, {"id": -6.350057001732045, "properties": {"Name": "Bryher Isles Of Scilly Ferry Landing"}, "geometry": {"coordinates": [-6.350057001732045, 49.95396353198909], "type": "Point"}, "type": "Feature"}, {"id": -0.16652012683614245, "properties": {"Name": "Cadogan Pier"}, "geometry": {"coordinates": [-0.16652012683614245, 51.48325449727579], "type": "Point"}, "type": "Feature"}, {"id": -1.956346394919813, "properties": {"Name": "Brownsea Island Ferry Landing"}, "geometry": {"coordinates": [-1.956346394919813, 50.68868236861125], "type": "Point"}, "type": "Feature"}, {"id": -2.9728541141785407, "properties": {"Name": "Burwick Sth Ronaldsay Orkney Ferry Terminal"}, "geometry": {"coordinates": [-2.9728541141785407, 58.73955187808913], "type": "Point"}, "type": "Feature"}, {"id": -3.061612236753442, "properties": {"Name": "Brantwood (Coniston) Ferry Landing"}, "geometry": {"coordinates": [-3.061612236753442, 54.35307631616003], "type": "Point"}, "type": "Feature"}, {"id": -3.511498303964593, "properties": {"Name": "Brixham Harbour Boarding Stage"}, "geometry": {"coordinates": [-3.511498303964593, 50.397730062719674], "type": "Point"}, "type": "Feature"}, {"id": -4.7928462298346215, "properties": {"Name": "Bardsey Island Ferry Landing"}, "geometry": {"coordinates": [-4.7928462298346215, 52.75354121057595], "type": "Point"}, "type": "Feature"}, {"id": -5.1237333486887735, "properties": {"Name": "Camusnagaul Ferry Landing"}, "geometry": {"coordinates": [-5.1237333486887735, 56.82794041795499], "type": "Point"}, "type": "Feature"}, {"id": -6.490295625033696, "properties": {"Name": "Canna Ferry Terminal"}, "geometry": {"coordinates": [-6.490295625033696, 57.0561707072136], "type": "Point"}, "type": "Feature"}, {"id": -6.4907036260912525, "properties": {"Name": "Canna Ferry Terminal"}, "geometry": {"coordinates": [-6.4907036260912525, 57.0558592370121], "type": "Point"}, "type": "Feature"}, {"id": -3.1857136386868175, "properties": {"Name": "Cardiff Castle Waterbus Stop"}, "geometry": {"coordinates": [-3.1857136386868175, 51.48174083266225], "type": "Point"}, "type": "Feature"}, {"id": -0.02848224141951751, "properties": {"Name": "Canary Wharf Pier"}, "geometry": {"coordinates": [-0.02848224141951751, 51.505690689535946], "type": "Point"}, "type": "Feature"}, {"id": -7.48825108988457, "properties": {"Name": "Castlebay Barra Ferry Terminal"}, "geometry": {"coordinates": [-7.48825108988457, 56.95384615897455], "type": "Point"}, "type": "Feature"}, {"id": -7.48816585763978, "properties": {"Name": "Castlebay Barra Ferry Terminal"}, "geometry": {"coordinates": [-7.48816585763978, 56.95371490867656], "type": "Point"}, "type": "Feature"}, {"id": -3.160662744335173, "properties": {"Name": "Cardiff - Britannia Quay"}, "geometry": {"coordinates": [-3.160662744335173, 51.46273082109834], "type": "Point"}, "type": "Feature"}, {"id": -4.693875651043706, "properties": {"Name": "Caldey Island Ferry Landing"}, "geometry": {"coordinates": [-4.693875651043706, 51.64021392333426], "type": "Point"}, "type": "Feature"}, {"id": -1.741997851109065, "properties": {"Name": "Mudeford Quay Ferry Landing"}, "geometry": {"coordinates": [-1.741997851109065, 50.723836805028064], "type": "Point"}, "type": "Feature"}, {"id": -0.1803346863086833, "properties": {"Name": "Chelsea Harbour Pier"}, "geometry": {"coordinates": [-0.1803346863086833, 51.47414445323601], "type": "Point"}, "type": "Feature"}, {"id": -5.949928770794145, "properties": {"Name": "Craighouse (Jura) Ferry Terminal"}, "geometry": {"coordinates": [-5.949928770794145, 55.83398070990847], "type": "Point"}, "type": "Feature"}, {"id": -3.173555557484419, "properties": {"Name": "Clarence Embankment Waterbus Stop"}, "geometry": {"coordinates": [-3.173555557484419, 51.464212012203014], "type": "Point"}, "type": "Feature"}, {"id": -5.38787513252659, "properties": {"Name": "Claonaig Ferry Terminal"}, "geometry": {"coordinates": [-5.38787513252659, 55.75107288014135], "type": "Point"}, "type": "Feature"}, {"id": -0.146555860899198, "properties": {"Name": "Camden Lock Waterbus"}, "geometry": {"coordinates": [-0.146555860899198, 51.54083436214529], "type": "Point"}, "type": "Feature"}, {"id": -2.8652797443066795, "properties": {"Name": "Clevedon Pier"}, "geometry": {"coordinates": [-2.8652797443066795, 51.4437480800605], "type": "Point"}, "type": "Feature"}, {"id": -4.407221897068084, "properties": {"Name": "Clydebank Ferry Landing"}, "geometry": {"coordinates": [-4.407221897068084, 55.89566453160256], "type": "Point"}, "type": "Feature"}, {"id": -4.4071899445501, "properties": {"Name": "Clydebank Ferry Landing"}, "geometry": {"coordinates": [-4.4071899445501, 55.89566515661619], "type": "Point"}, "type": "Feature"}, {"id": -5.706312897194685, "properties": {"Name": "Craignure Mull Ferry Terminal"}, "geometry": {"coordinates": [-5.706312897194685, 56.470758654435855], "type": "Point"}, "type": "Feature"}, {"id": -5.70570960704933, "properties": {"Name": "Craignure Mull Ferry Terminal"}, "geometry": {"coordinates": [-5.70570960704933, 56.47123524330597], "type": "Point"}, "type": "Feature"}, {"id": -3.873991148406651, "properties": {"Name": "Cockleridge Ham Ferry Landing"}, "geometry": {"coordinates": [-3.873991148406651, 50.28115959173691], "type": "Point"}, "type": "Feature"}, {"id": -1.2905156016336752, "properties": {"Name": "East Cowes Floating Bridge"}, "geometry": {"coordinates": [-1.2905156016336752, 50.75734232771066], "type": "Point"}, "type": "Feature"}, {"id": -1.296691717543986, "properties": {"Name": "West Cowes Ferry Terminal "}, "geometry": {"coordinates": [-1.296691717543986, 50.762415658506335], "type": "Point"}, "type": "Feature"}, {"id": -6.522610349625595, "properties": {"Name": "Coll Ferry Terminal"}, "geometry": {"coordinates": [-6.522610349625595, 56.614659718745116], "type": "Point"}, "type": "Feature"}, {"id": -1.2924329476935938, "properties": {"Name": "West Cowes Floating Bridge"}, "geometry": {"coordinates": [-1.2924329476935938, 50.758055406009625], "type": "Point"}, "type": "Feature"}, {"id": -3.066336759176897, "properties": {"Name": "Coniston Ferry Landing"}, "geometry": {"coordinates": [-3.066336759176897, 54.363801814228395], "type": "Point"}, "type": "Feature"}, {"id": -5.152757541893787, "properties": {"Name": "Colintraive Ferry Terminal"}, "geometry": {"coordinates": [-5.152757541893787, 55.92335350787008], "type": "Point"}, "type": "Feature"}, {"id": -1.2900210061326203, "properties": {"Name": "East Cowes Ferry Terminal"}, "geometry": {"coordinates": [-1.2900210061326203, 50.75911089047583], "type": "Point"}, "type": "Feature"}, {"id": -5.599431418857047, "properties": {"Name": "Campbeltown Ferry Terminal"}, "geometry": {"coordinates": [-5.599431418857047, 55.42402914436591], "type": "Point"}, "type": "Feature"}, {"id": -1.7810695146821227, "properties": {"Name": "Christchurch Quay Ferry Landing"}, "geometry": {"coordinates": [-1.7810695146821227, 50.73004063244026], "type": "Point"}, "type": "Feature"}, {"id": -4.17474021087211, "properties": {"Name": "Cremyll Mount Edgcumbe Ferry Landing"}, "geometry": {"coordinates": [-4.17474021087211, 50.360557426982716], "type": "Point"}, "type": "Feature"}, {"id": -4.037805004831662, "properties": {"Name": "Cromarty Ferry Terminal"}, "geometry": {"coordinates": [-4.037805004831662, 57.682736211555856], "type": "Point"}, "type": "Feature"}, {"id": -5.235519988732707, "properties": {"Name": "Nether Lochaber Ferry Terminal"}, "geometry": {"coordinates": [-5.235519988732707, 56.721515832335996], "type": "Point"}, "type": "Feature"}, {"id": -7.486273527518055, "properties": {"Name": "Castle Slip Ferry Landing"}, "geometry": {"coordinates": [-7.486273527518055, 56.95395117483911], "type": "Point"}, "type": "Feature"}, {"id": -6.188204987600321, "properties": {"Name": "Colonsay Ferry Terminal"}, "geometry": {"coordinates": [-6.188204987600321, 56.06860253110587], "type": "Point"}, "type": "Feature"}, {"id": -6.185430262317008, "properties": {"Name": "Colonsay Ferry Terminal"}, "geometry": {"coordinates": [-6.185430262317008, 56.06851693609282], "type": "Point"}, "type": "Feature"}, {"id": -4.898245428301203, "properties": {"Name": "Cumbrae Ferry Terminal"}, "geometry": {"coordinates": [-4.898245428301203, 55.78670958903333], "type": "Point"}, "type": "Feature"}, {"id": -5.6293864734499115, "properties": {"Name": "North Cuan Seil Ferry Terminal"}, "geometry": {"coordinates": [-5.6293864734499115, 56.26773992954251], "type": "Point"}, "type": "Feature"}, {"id": -5.064714281752443, "properties": {"Name": "Falmouth Custom House Quay"}, "geometry": {"coordinates": [-5.064714281752443, 50.152770802646934], "type": "Point"}, "type": "Feature"}, {"id": -3.179393138102447, "properties": {"Name": "Channel View Waterbus Stop"}, "geometry": {"coordinates": [-3.179393138102447, 51.46226511662333], "type": "Point"}, "type": "Feature"}, {"id": -4.801040120612637, "properties": {"Name": "Cape Wrath Ferry Landing"}, "geometry": {"coordinates": [-4.801040120612637, 58.55185533560075], "type": "Point"}, "type": "Feature"}, {"id": -5.014818930089214, "properties": {"Name": "Cairnryan Ferry Terminal"}, "geometry": {"coordinates": [-5.014818930089214, 54.96577715925669], "type": "Point"}, "type": "Feature"}, {"id": -5.0148338546978195, "properties": {"Name": "Cairnryan P&O Ferry Terminal"}, "geometry": {"coordinates": [-5.0148338546978195, 54.965767798478346], "type": "Point"}, "type": "Feature"}, {"id": -5.035914165337614, "properties": {"Name": "Cairnryan Stena Line Ferry Terminal"}, "geometry": {"coordinates": [-5.035914165337614, 54.984815202580336], "type": "Point"}, "type": "Feature"}, {"id": -5.035945374076611, "properties": {"Name": "Cairnryan Stena Line Ferry Terminal"}, "geometry": {"coordinates": [-5.035945374076611, 54.98481442294459], "type": "Point"}, "type": "Feature"}, {"id": -3.5954297325276467, "properties": {"Name": "Dittisham Ferry Landing"}, "geometry": {"coordinates": [-3.5954297325276467, 50.38227268676883], "type": "Point"}, "type": "Feature"}, {"id": -3.576819440380635, "properties": {"Name": "Dartmouth North Embankment Ferry Terminal"}, "geometry": {"coordinates": [-3.576819440380635, 50.35127291333208], "type": "Point"}, "type": "Feature"}, {"id": -4.921310787248807, "properties": {"Name": "Dunoon Ferry Terminal"}, "geometry": {"coordinates": [-4.921310787248807, 55.946476640934044], "type": "Point"}, "type": "Feature"}, {"id": -3.5765781095635822, "properties": {"Name": "Dartmouth Naval College Ferry Terminal"}, "geometry": {"coordinates": [-3.5765781095635822, 50.35671747774449], "type": "Point"}, "type": "Feature"}, {"id": -5.984762094410084, "properties": {"Name": "Drimnin Ferry Landing"}, "geometry": {"coordinates": [-5.984762094410084, 56.61325726807999], "type": "Point"}, "type": "Feature"}, {"id": -0.33119816751085873, "properties": {"Name": "Ditton Island Ferry Landing"}, "geometry": {"coordinates": [-0.33119816751085873, 51.3928131082537], "type": "Point"}, "type": "Feature"}, {"id": -3.5775539045259954, "properties": {"Name": "Dartmouth South Embankment Ferry Terminal"}, "geometry": {"coordinates": [-3.5775539045259954, 50.34883460234327], "type": "Point"}, "type": "Feature"}, {"id": -4.79023932366196, "properties": {"Name": "Durness Keoldale Ferry Landing"}, "geometry": {"coordinates": [-4.79023932366196, 58.55288129605696], "type": "Point"}, "type": "Feature"}, {"id": 1.3271309333058687, "properties": {"Name": "Dover Eastern Docks Ferry Terminal"}, "geometry": {"coordinates": [1.3271309333058687, 51.126230295975496], "type": "Point"}, "type": "Feature"}, {"id": -4.184075182849297, "properties": {"Name": "Devonport Ferry Terminal"}, "geometry": {"coordinates": [-4.184075182849297, 50.37614963924134], "type": "Point"}, "type": "Feature"}, {"id": 1.3151747704189225, "properties": {"Name": "Dover Western Docks Ferry Terminal"}, "geometry": {"coordinates": [1.3151747704189225, 51.11697225474036], "type": "Point"}, "type": "Feature"}, {"id": -5.651597502712867, "properties": {"Name": "Easdale Seil Ferry Landing"}, "geometry": {"coordinates": [-5.651597502712867, 56.29359218673111], "type": "Point"}, "type": "Feature"}, {"id": -5.654549307144134, "properties": {"Name": "Easdale Island Ferry Landing"}, "geometry": {"coordinates": [-5.654549307144134, 56.29301047842341], "type": "Point"}, "type": "Feature"}, {"id": -2.74738381583173, "properties": {"Name": "Eday Orkney Ferry Terminal"}, "geometry": {"coordinates": [-2.74738381583173, 59.155529928587626], "type": "Point"}, "type": "Feature"}, {"id": -2.94271627936455, "properties": {"Name": "Egilsay Orkney Ferry Terminal"}, "geometry": {"coordinates": [-2.94271627936455, 59.155785737912154], "type": "Point"}, "type": "Feature"}, {"id": -0.0026246971363212955, "properties": {"Name": "East India Pier"}, "geometry": {"coordinates": [-0.0026246971363212955, 51.50715059854345], "type": "Point"}, "type": "Feature"}, {"id": -0.12142755117166025, "properties": {"Name": "Embankment Pier"}, "geometry": {"coordinates": [-0.12142755117166025, 51.507387181955835], "type": "Point"}, "type": "Feature"}, {"id": -7.308246788278705, "properties": {"Name": "Eriskay Ferry Terminal"}, "geometry": {"coordinates": [-7.308246788278705, 57.07092955108327], "type": "Point"}, "type": "Feature"}, {"id": -3.423981722294452, "properties": {"Name": "Exmouth Ferry Landing"}, "geometry": {"coordinates": [-3.423981722294452, 50.61711656268892], "type": "Point"}, "type": "Feature"}, {"id": -4.680214643371545, "properties": {"Name": "Fort Augustus Ferry Landing"}, "geometry": {"coordinates": [-4.680214643371545, 57.14548673047345], "type": "Point"}, "type": "Feature"}, {"id": -4.874338820333843, "properties": {"Name": "Fairlie Ferry Terminal"}, "geometry": {"coordinates": [-4.874338820333843, 55.74891448642591], "type": "Point"}, "type": "Feature"}, {"id": -5.070073462426844, "properties": {"Name": "Falmouth Prince of Wales Pier Ferry Landing"}, "geometry": {"coordinates": [-5.070073462426844, 50.156434372304865], "type": "Point"}, "type": "Feature"}, {"id": -4.633701204503293, "properties": {"Name": "Fowey Custom House Quay Ferry Landing"}, "geometry": {"coordinates": [-4.633701204503293, 50.340584110308214], "type": "Point"}, "type": "Feature"}, {"id": -2.952115450702017, "properties": {"Name": "Fell Foot Country Park Ferry Landing"}, "geometry": {"coordinates": [-2.952115450702017, 54.27689460731592], "type": "Point"}, "type": "Feature"}, {"id": -6.090637437758761, "properties": {"Name": "Feolin Jura Ferry Terminal"}, "geometry": {"coordinates": [-6.090637437758761, 55.84697526563052], "type": "Point"}, "type": "Feature"}, {"id": -0.11724847676988992, "properties": {"Name": "Festival Pier"}, "geometry": {"coordinates": [-0.11724847676988992, 51.50669069076352], "type": "Point"}, "type": "Feature"}, {"id": 1.1183688923470376, "properties": {"Name": "Folkestone Eurotunnel Terminal"}, "geometry": {"coordinates": [1.1183688923470376, 51.09663855795917], "type": "Point"}, "type": "Feature"}, {"id": -5.810339707871147, "properties": {"Name": "Fishnish Ferry Terminal"}, "geometry": {"coordinates": [-5.810339707871147, 56.51474006389099], "type": "Point"}, "type": "Feature"}, {"id": -1.60350214559303, "properties": {"Name": "Fair Isle Shetland Ferry Terminal"}, "geometry": {"coordinates": [-1.60350214559303, 59.53786469870202], "type": "Point"}, "type": "Feature"}, {"id": -6.369403188718228, "properties": {"Name": "Fionnphort Mull Ferry Terminal"}, "geometry": {"coordinates": [-6.369403188718228, 56.32561119603306], "type": "Point"}, "type": "Feature"}, {"id": -4.993723297674994, "properties": {"Name": "Fishguard Ferry Terminal"}, "geometry": {"coordinates": [-4.993723297674994, 52.0044465586081], "type": "Point"}, "type": "Feature"}, {"id": -3.005840975633678, "properties": {"Name": "Fleetwood for Knott End Ferry Landing"}, "geometry": {"coordinates": [-3.005840975633678, 53.92764577850161], "type": "Point"}, "type": "Feature"}, {"id": -3.1282515120848733, "properties": {"Name": "Flotta Orkney Ferry Terminal"}, "geometry": {"coordinates": [-3.1282515120848733, 58.83808741487717], "type": "Point"}, "type": "Feature"}, {"id": -5.070524624501312, "properties": {"Name": "Flushing Falmouth Ferry Landing"}, "geometry": {"coordinates": [-5.070524624501312, 50.163034385398554], "type": "Point"}, "type": "Feature"}, {"id": -2.0482274631943302, "properties": {"Name": "Foula Shetland Ferry Terminal"}, "geometry": {"coordinates": [-2.0482274631943302, 60.133643379406706], "type": "Point"}, "type": "Feature"}, {"id": -4.637153373542359, "properties": {"Name": "Fowey Ferry Landing"}, "geometry": {"coordinates": [-4.637153373542359, 50.33312989295903], "type": "Point"}, "type": "Feature"}, {"id": -1.2132128169813634, "properties": {"Name": "Fishbourne IOW Ferry Terminal"}, "geometry": {"coordinates": [-1.2132128169813634, 50.73248511788702], "type": "Point"}, "type": "Feature"}, {"id": -4.6344541698944255, "properties": {"Name": "Fowey Town Quay Ferry Landing"}, "geometry": {"coordinates": [-4.6344541698944255, 50.33514304370422], "type": "Point"}, "type": "Feature"}, {"id": -5.1149163960607344, "properties": {"Name": "Fort William Ferry Landing"}, "geometry": {"coordinates": [-5.1149163960607344, 56.81693391815237], "type": "Point"}, "type": "Feature"}, {"id": 1.3909996893371366, "properties": {"Name": "Felixstowe for Bawdsey Ferry Landing"}, "geometry": {"coordinates": [1.3909996893371366, 51.989375046013905], "type": "Point"}, "type": "Feature"}, {"id": 1.3197635631968834, "properties": {"Name": "Felixstowe for Harwich Ferry Landing"}, "geometry": {"coordinates": [1.3197635631968834, 51.939823704971815], "type": "Point"}, "type": "Feature"}, {"id": -3.2672621862817013, "properties": {"Name": "Graemsay Orkney Ferry Terminal"}, "geometry": {"coordinates": [-3.2672621862817013, 58.93119410123139], "type": "Point"}, "type": "Feature"}, {"id": -6.129964812048643, "properties": {"Name": "Eigg Ferry Terminal"}, "geometry": {"coordinates": [-6.129964812048643, 56.87722309647072], "type": "Point"}, "type": "Feature"}, {"id": -6.12932462244402, "properties": {"Name": "Eigg Ferry Terminal"}, "geometry": {"coordinates": [-6.12932462244402, 56.87722630799703], "type": "Point"}, "type": "Feature"}, {"id": -4.750735405535178, "properties": {"Name": "Greenock Custom House Quay Ferry Terminal"}, "geometry": {"coordinates": [-4.750735405535178, 55.94860777980801], "type": "Point"}, "type": "Feature"}, {"id": -3.161656653975817, "properties": {"Name": "Gills Bay Ferry Terminal"}, "geometry": {"coordinates": [-3.161656653975817, 58.63919909853452], "type": "Point"}, "type": "Feature"}, {"id": -5.68484892026688, "properties": {"Name": "Gairloch Ferry Landing"}, "geometry": {"coordinates": [-5.68484892026688, 57.710813395751615], "type": "Point"}, "type": "Feature"}, {"id": -5.655619491190093, "properties": {"Name": "Glenelg Isle of Skye Ferry Terminal"}, "geometry": {"coordinates": [-5.655619491190093, 57.229145083050334], "type": "Point"}, "type": "Feature"}, {"id": -0.03276050509236483, "properties": {"Name": "Greenland Pier for Surrey Quays"}, "geometry": {"coordinates": [-0.03276050509236483, 51.49468358705648], "type": "Point"}, "type": "Feature"}, {"id": -2.943900109483085, "properties": {"Name": "Glenridding Ullswater Ferry Landing"}, "geometry": {"coordinates": [-2.943900109483085, 54.543849847421875], "type": "Point"}, "type": "Feature"}, {"id": -4.258551609864374, "properties": {"Name": "Glasgow Central Station Bridge Ferry Landing"}, "geometry": {"coordinates": [-4.258551609864374, 55.85613386211461], "type": "Point"}, "type": "Feature"}, {"id": -4.294695793913547, "properties": {"Name": "Glasgow Science Centre North Quay"}, "geometry": {"coordinates": [-4.294695793913547, 55.858574565468786], "type": "Point"}, "type": "Feature"}, {"id": -0.009659152033368031, "properties": {"Name": "Greenwich Pier"}, "geometry": {"coordinates": [-0.009659152033368031, 51.48361943088453], "type": "Point"}, "type": "Feature"}, {"id": -1.1179545790322043, "properties": {"Name": "Gosport Ferry Terminal"}, "geometry": {"coordinates": [-1.1179545790322043, 50.794834303290095], "type": "Point"}, "type": "Feature"}, {"id": -4.310018503783896, "properties": {"Name": "Govan Ferry Landing"}, "geometry": {"coordinates": [-4.310018503783896, 55.864192602502015], "type": "Point"}, "type": "Feature"}, {"id": -3.591419793629826, "properties": {"Name": "Greenway House Ferry Landing"}, "geometry": {"coordinates": [-3.591419793629826, 50.38223769934422], "type": "Point"}, "type": "Feature"}, {"id": -4.814712455283287, "properties": {"Name": "Gourock Ferry Terminal"}, "geometry": {"coordinates": [-4.814712455283287, 55.960690053270156], "type": "Point"}, "type": "Feature"}, {"id": -0.9964259213786018, "properties": {"Name": "Gutcher Shetland Ferry Terminal"}, "geometry": {"coordinates": [-0.9964259213786018, 60.67291129132382], "type": "Point"}, "type": "Feature"}, {"id": -4.7466133452921415, "properties": {"Name": "Greenock - Victoria Harbour"}, "geometry": {"coordinates": [-4.7466133452921415, 55.94469087603851], "type": "Point"}, "type": "Feature"}, {"id": -4.860233967705604, "properties": {"Name": "Girvan Harbour Ferry Terminal"}, "geometry": {"coordinates": [-4.860233967705604, 55.24395694719649], "type": "Point"}, "type": "Feature"}, {"id": 0.3682471348697883, "properties": {"Name": "Gravesend Pier"}, "geometry": {"coordinates": [0.3682471348697883, 51.445648968359635], "type": "Point"}, "type": "Feature"}, {"id": -1.3124336743626484, "properties": {"Name": "Hamble-le-Rice Ferry Landing"}, "geometry": {"coordinates": [-1.3124336743626484, 50.85792161899073], "type": "Point"}, "type": "Feature"}, {"id": -5.169089011367402, "properties": {"Name": "Handa Island Ferry Landing"}, "geometry": {"coordinates": [-5.169089011367402, 58.37755982743317], "type": "Point"}, "type": "Feature"}, {"id": -0.3416777104395944, "properties": {"Name": "Hampton Court Pier"}, "geometry": {"coordinates": [-0.3416777104395944, 51.40391468271435], "type": "Point"}, "type": "Feature"}, {"id": -4.7362765259208555, "properties": {"Name": "Helensburgh Ferry Terminal"}, "geometry": {"coordinates": [-4.7362765259208555, 56.001791559315016], "type": "Point"}, "type": "Feature"}, {"id": -5.128685578251887, "properties": {"Name": "Helford Passage Ferry Landing"}, "geometry": {"coordinates": [-5.128685578251887, 50.0998133407347], "type": "Point"}, "type": "Feature"}, {"id": -1.0251457694633588, "properties": {"Name": "Hayling Island Ferry Landing"}, "geometry": {"coordinates": [-1.0251457694633588, 50.79623613172818], "type": "Point"}, "type": "Feature"}, {"id": -3.1587932038800446, "properties": {"Name": "High Brandelhow Ferry Landing"}, "geometry": {"coordinates": [-3.1587932038800446, 54.567595885270045], "type": "Point"}, "type": "Feature"}, {"id": -1.0297915537173958, "properties": {"Name": "Eastney Ferry Landing"}, "geometry": {"coordinates": [-1.0297915537173958, 50.79663456511759], "type": "Point"}, "type": "Feature"}, {"id": -5.134399667864894, "properties": {"Name": "Helford Village Ferry Landing"}, "geometry": {"coordinates": [-5.134399667864894, 50.09522402583756], "type": "Point"}, "type": "Feature"}, {"id": -5.089474589804651, "properties": {"Name": "Holy Island Arran Ferry Landing"}, "geometry": {"coordinates": [-5.089474589804651, 55.533468136758636], "type": "Point"}, "type": "Feature"}, {"id": -4.629087195157348, "properties": {"Name": "Holyhead Ferry Terminal"}, "geometry": {"coordinates": [-4.629087195157348, 53.309495787084984], "type": "Point"}, "type": "Feature"}, {"id": -0.36194546114240533, "properties": {"Name": "Hampton Ferry Landing"}, "geometry": {"coordinates": [-0.36194546114240533, 51.4124817357713], "type": "Point"}, "type": "Feature"}, {"id": -3.5733739925600334, "properties": {"Name": "Kingswear Hoodown Ferry Terminal"}, "geometry": {"coordinates": [-3.5733739925600334, 50.35972885914629], "type": "Point"}, "type": "Feature"}, {"id": -2.8628633352296475, "properties": {"Name": "Howtown Ullswater Ferry Landing"}, "geometry": {"coordinates": [-2.8628633352296475, 54.57138964546375], "type": "Point"}, "type": "Feature"}, {"id": -3.1838817189868185, "properties": {"Name": "Houton Orkney Ferry Terminal"}, "geometry": {"coordinates": [-3.1838817189868185, 58.917200833144975], "type": "Point"}, "type": "Feature"}, {"id": 1.2538825613272193, "properties": {"Name": "Harwich International Ferry Terminal"}, "geometry": {"coordinates": [1.2538825613272193, 51.94782580643965], "type": "Point"}, "type": "Feature"}, {"id": -0.27381674925175364, "properties": {"Name": "Hull Ferry Terminal"}, "geometry": {"coordinates": [-0.27381674925175364, 53.743764526679314], "type": "Point"}, "type": "Feature"}, {"id": -4.909264191915481, "properties": {"Name": "Dunoon Hunters Quay Ferry Terminal"}, "geometry": {"coordinates": [-4.909264191915481, 55.970591891964034], "type": "Point"}, "type": "Feature"}, {"id": -1.9500135980257731, "properties": {"Name": "Shell Bay Ferry Terminal"}, "geometry": {"coordinates": [-1.9500135980257731, 50.67997487955443], "type": "Point"}, "type": "Feature"}, {"id": 1.2859400837863622, "properties": {"Name": "Harwich Harbour Ferry Landing"}, "geometry": {"coordinates": [1.2859400837863622, 51.94832875515342], "type": "Point"}, "type": "Feature"}, {"id": -2.9123633794166106, "properties": {"Name": "Heysham Ferry Terminal"}, "geometry": {"coordinates": [-2.9123633794166106, 54.03371422079509], "type": "Point"}, "type": "Feature"}, {"id": -1.399290989828769, "properties": {"Name": "Hythe (Hants) Ferry Terminal"}, "geometry": {"coordinates": [-1.399290989828769, 50.87071158404502], "type": "Point"}, "type": "Feature"}, {"id": -4.111336342483164, "properties": {"Name": "Ilfracombe Ferry Landing"}, "geometry": {"coordinates": [-4.111336342483164, 51.21078504199498], "type": "Point"}, "type": "Feature"}, {"id": -4.3353522441368, "properties": {"Name": "Inverness Loch Ness Ferry Landing"}, "geometry": {"coordinates": [-4.3353522441368, 57.40992055617695], "type": "Point"}, "type": "Feature"}, {"id": -3.2991714536137264, "properties": {"Name": "Inchcolm Island Ferry Landing"}, "geometry": {"coordinates": [-3.2991714536137264, 56.03048804852512], "type": "Point"}, "type": "Feature"}, {"id": -4.168574050171141, "properties": {"Name": "Invergordon Port Ferry Terminal"}, "geometry": {"coordinates": [-4.168574050171141, 57.6857912894908], "type": "Point"}, "type": "Feature"}, {"id": -4.182045801381606, "properties": {"Name": "Instow Ferry Landing"}, "geometry": {"coordinates": [-4.182045801381606, 51.05120311236948], "type": "Point"}, "type": "Feature"}, {"id": -6.3922571752589725, "properties": {"Name": "Iona Ferry Terminal"}, "geometry": {"coordinates": [-6.3922571752589725, 56.33022519884919], "type": "Point"}, "type": "Feature"}, {"id": -0.8666288423429994, "properties": {"Name": "West Itchenor Ferry Landing"}, "geometry": {"coordinates": [-0.8666288423429994, 50.80718727698465], "type": "Point"}, "type": "Feature"}, {"id": -4.662878116933441, "properties": {"Name": "Inverbeg Pier"}, "geometry": {"coordinates": [-4.662878116933441, 56.14508088478271], "type": "Point"}, "type": "Feature"}, {"id": -5.683036447854402, "properties": {"Name": "Inverie Ferry Landing"}, "geometry": {"coordinates": [-5.683036447854402, 57.03658117424742], "type": "Point"}, "type": "Feature"}, {"id": -4.685105316985558, "properties": {"Name": "Inversnaid Pier"}, "geometry": {"coordinates": [-4.685105316985558, 56.242759178342425], "type": "Point"}, "type": "Feature"}, {"id": -4.709464975567857, "properties": {"Name": "Inveruglas Pier"}, "geometry": {"coordinates": [-4.709464975567857, 56.25146766488123], "type": "Point"}, "type": "Feature"}, {"id": -5.070177381197348, "properties": {"Name": "Inveraray Ferry Terminal"}, "geometry": {"coordinates": [-5.070177381197348, 56.23157641328914], "type": "Point"}, "type": "Feature"}, {"id": -3.0701790490138645, "properties": {"Name": "John O\u2019 Groats Ferry Terminal"}, "geometry": {"coordinates": [-3.0701790490138645, 58.64416902798085], "type": "Point"}, "type": "Feature"}, {"id": -3.7755022792549076, "properties": {"Name": "Kingsbridge Ferry Landing"}, "geometry": {"coordinates": [-3.7755022792549076, 50.28126725502276], "type": "Point"}, "type": "Feature"}, {"id": -5.483421164320471, "properties": {"Name": "Kennacraig Ferry Terminal"}, "geometry": {"coordinates": [-5.483421164320471, 55.80670583326722], "type": "Point"}, "type": "Feature"}, {"id": -5.484307315486535, "properties": {"Name": "Kennacraig Ferry Terminal"}, "geometry": {"coordinates": [-5.484307315486535, 55.80661776246843], "type": "Point"}, "type": "Feature"}, {"id": -5.5187894217994815, "properties": {"Name": "Kerrera Ferry Landing"}, "geometry": {"coordinates": [-5.5187894217994815, 56.400007846362804], "type": "Point"}, "type": "Feature"}, {"id": -3.140652006511549, "properties": {"Name": "Keswick Ferry Landing"}, "geometry": {"coordinates": [-3.140652006511549, 54.594802280222844], "type": "Point"}, "type": "Feature"}, {"id": -0.2864313533943908, "properties": {"Name": "Kew Pier"}, "geometry": {"coordinates": [-0.2864313533943908, 51.48641689946353], "type": "Point"}, "type": "Feature"}, {"id": -5.024807497358985, "properties": {"Name": "Philleigh King Harry Ferry Landing"}, "geometry": {"coordinates": [-5.024807497358985, 50.21675229548588], "type": "Point"}, "type": "Feature"}, {"id": 0.3917770071199973, "properties": {"Name": "King's Lynn Ferry Landing"}, "geometry": {"coordinates": [0.3917770071199973, 52.755156396324296], "type": "Point"}, "type": "Feature"}, {"id": -4.820450538054297, "properties": {"Name": "Kilcreggan Ferry Terminal"}, "geometry": {"coordinates": [-4.820450538054297, 55.98470265422732], "type": "Point"}, "type": "Feature"}, {"id": -0.30796810942147357, "properties": {"Name": "Kingston Turks Pier"}, "geometry": {"coordinates": [-0.30796810942147357, 51.41234437488988], "type": "Point"}, "type": "Feature"}, {"id": -3.573343550171538, "properties": {"Name": "Kingswear Dartmouth Lower Ferry Terminal"}, "geometry": {"coordinates": [-3.573343550171538, 50.348603857473734], "type": "Point"}, "type": "Feature"}, {"id": -6.093975614139831, "properties": {"Name": "Kilchoan Ferry Terminal"}, "geometry": {"coordinates": [-6.093975614139831, 56.68857311348986], "type": "Point"}, "type": "Feature"}, {"id": -6.273118638187816, "properties": {"Name": "Rum Ferry Terminal"}, "geometry": {"coordinates": [-6.273118638187816, 57.01058454437413], "type": "Point"}, "type": "Feature"}, {"id": -6.272772881717363, "properties": {"Name": "Rum Ferry Terminal"}, "geometry": {"coordinates": [-6.272772881717363, 57.0108751623033], "type": "Point"}, "type": "Feature"}, {"id": -2.9969510553846694, "properties": {"Name": "Knott End-On-Sea Ferry Landing"}, "geometry": {"coordinates": [-2.9969510553846694, 53.928456953958985], "type": "Point"}, "type": "Feature"}, {"id": -5.713352914448406, "properties": {"Name": "Kyle of Lochalsh Ferry Terminal"}, "geometry": {"coordinates": [-5.713352914448406, 57.27965850027444], "type": "Point"}, "type": "Feature"}, {"id": -3.4078193574613485, "properties": {"Name": "Kinross Ferry Landing"}, "geometry": {"coordinates": [-3.4078193574613485, 56.20014669781873], "type": "Point"}, "type": "Feature"}, {"id": -7.487015604878581, "properties": {"Name": "Kisimul Castle Ferry Landing"}, "geometry": {"coordinates": [-7.487015604878581, 56.95228051156917], "type": "Point"}, "type": "Feature"}, {"id": -0.3083943319091243, "properties": {"Name": "Kingston Town End Pier"}, "geometry": {"coordinates": [-0.3083943319091243, 51.405471287826245], "type": "Point"}, "type": "Feature"}, {"id": -2.974080315312896, "properties": {"Name": "Kirkwall Orkney Hatston Ferry Terminal"}, "geometry": {"coordinates": [-2.974080315312896, 58.99987966863461], "type": "Point"}, "type": "Feature"}, {"id": -2.9603565321561485, "properties": {"Name": "Kirkwall Orkney Ferry Terminal"}, "geometry": {"coordinates": [-2.9603565321561485, 58.986483752195895], "type": "Point"}, "type": "Feature"}, {"id": -2.960463197853382, "properties": {"Name": "Kirkwall Shapinsay Ferry Terminal"}, "geometry": {"coordinates": [-2.960463197853382, 58.98531543211574], "type": "Point"}, "type": "Feature"}, {"id": -5.664356611699648, "properties": {"Name": "Kylerhea Isle of Skye Ferry Terminal"}, "geometry": {"coordinates": [-5.664356611699648, 57.227820327550326], "type": "Point"}, "type": "Feature"}, {"id": -5.866674071513208, "properties": {"Name": "Laga Ferry Landing"}, "geometry": {"coordinates": [-5.866674071513208, 56.67945478616301], "type": "Point"}, "type": "Feature"}, {"id": -2.95525749484543, "properties": {"Name": "Lakeside Windermere Ferry Landing"}, "geometry": {"coordinates": [-2.95525749484543, 54.27794826645669], "type": "Point"}, "type": "Feature"}, {"id": -5.124292590760015, "properties": {"Name": "Lamlash Arran Ferry Landing"}, "geometry": {"coordinates": [-5.124292590760015, 55.534768986904325], "type": "Point"}, "type": "Feature"}, {"id": -1.1702985473143075, "properties": {"Name": "Laxo Shetland Ferry Terminal"}, "geometry": {"coordinates": [-1.1702985473143075, 60.352130600484564], "type": "Point"}, "type": "Feature"}, {"id": -0.08475779826424513, "properties": {"Name": "London Bridge City Pier"}, "geometry": {"coordinates": [-0.08475779826424513, 51.50659624489199], "type": "Point"}, "type": "Feature"}, {"id": -7.30396925506223, "properties": {"Name": "Lochboisdale South Uist Ferry Terminal"}, "geometry": {"coordinates": [-7.30396925506223, 57.15220060170388], "type": "Point"}, "type": "Feature"}, {"id": -7.303954081022642, "properties": {"Name": "Lochboisdale South Uist Ferry Terminal"}, "geometry": {"coordinates": [-7.303954081022642, 57.15221024386989], "type": "Point"}, "type": "Feature"}, {"id": -5.301984949094788, "properties": {"Name": "Lochranza Arran Ferry Terminal"}, "geometry": {"coordinates": [-5.301984949094788, 55.70771441138202], "type": "Point"}, "type": "Feature"}, {"id": -3.3931372256820675, "properties": {"Name": "Lochleven Castle Ferry Landing"}, "geometry": {"coordinates": [-3.3931372256820675, 56.20064546505713], "type": "Point"}, "type": "Feature"}, {"id": -5.403766025082706, "properties": {"Name": "Tarbert (Loch Fyne) Ferry Terminal"}, "geometry": {"coordinates": [-5.403766025082706, 55.866165124061084], "type": "Point"}, "type": "Feature"}, {"id": -7.025257915414654, "properties": {"Name": "Leverburgh Harris Ferry Terminal"}, "geometry": {"coordinates": [-7.025257915414654, 57.76654043268369], "type": "Point"}, "type": "Feature"}, {"id": -4.9011943420246995, "properties": {"Name": "Lochgoilhead Ferry Terminal"}, "geometry": {"coordinates": [-4.9011943420246995, 56.16843058018293], "type": "Point"}, "type": "Feature"}, {"id": -4.871013372663164, "properties": {"Name": "Largs Ferry Terminal"}, "geometry": {"coordinates": [-4.871013372663164, 55.79494485655321], "type": "Point"}, "type": "Feature"}, {"id": -1.1506408649241735, "properties": {"Name": "Lerwick Shetland Hays Dock Ferry Terminal"}, "geometry": {"coordinates": [-1.1506408649241735, 60.15867653293712], "type": "Point"}, "type": "Feature"}, {"id": -5.775035432577841, "properties": {"Name": "Lochaline Ferry Terminal"}, "geometry": {"coordinates": [-5.775035432577841, 56.53667969071862], "type": "Point"}, "type": "Feature"}, {"id": -1.157566852768879, "properties": {"Name": "Lerwick Shetland Holmsgarth Ferry Terminal"}, "geometry": {"coordinates": [-1.157566852768879, 60.16258181614209], "type": "Point"}, "type": "Feature"}, {"id": -3.2070383183040923, "properties": {"Name": "Longhope Orkney Ferry Terminal"}, "geometry": {"coordinates": [-3.2070383183040923, 58.80043376834616], "type": "Point"}, "type": "Feature"}, {"id": -3.006169562584703, "properties": {"Name": "Liverpool Belfast Ferry Terminal Bootle"}, "geometry": {"coordinates": [-3.006169562584703, 53.44351138645054], "type": "Point"}, "type": "Feature"}, {"id": -2.9989113739932307, "properties": {"Name": "Liverpool Isle of Man & Dublin Terminal"}, "geometry": {"coordinates": [-2.9989113739932307, 53.40623236611441], "type": "Point"}, "type": "Feature"}, {"id": -3.092758988843872, "properties": {"Name": "Lake Bank (Coniston) Ferry Landing"}, "geometry": {"coordinates": [-3.092758988843872, 54.30047197788305], "type": "Point"}, "type": "Feature"}, {"id": -7.157672050654161, "properties": {"Name": "Lochmaddy North Uist Ferry Terminal"}, "geometry": {"coordinates": [-7.157672050654161, 57.59651819059328], "type": "Point"}, "type": "Feature"}, {"id": -7.155944935886313, "properties": {"Name": "Lochmaddy North Uist Ferry Terminal"}, "geometry": {"coordinates": [-7.155944935886313, 57.59615695128749], "type": "Point"}, "type": "Feature"}, {"id": -0.12119583353364652, "properties": {"Name": "Lambeth Pier"}, "geometry": {"coordinates": [-0.12119583353364652, 51.49515360852849], "type": "Point"}, "type": "Feature"}, {"id": -5.492067968412373, "properties": {"Name": "Lismore Ferry Terminal"}, "geometry": {"coordinates": [-5.492067968412373, 56.511158508584074], "type": "Point"}, "type": "Feature"}, {"id": -3.1970509285372057, "properties": {"Name": "Leith Newhaven Harbour Ferry Landing"}, "geometry": {"coordinates": [-3.1970509285372057, 55.98193100053686], "type": "Point"}, "type": "Feature"}, {"id": -0.16185307958294762, "properties": {"Name": "London Zoo Waterbus Stop"}, "geometry": {"coordinates": [-0.16185307958294762, 51.535544686531146], "type": "Point"}, "type": "Feature"}, {"id": -3.138879653947577, "properties": {"Name": "Lodore Falls Derwentwater Ferry Landing"}, "geometry": {"coordinates": [-3.138879653947577, 54.56290484352729], "type": "Point"}, "type": "Feature"}, {"id": -3.1575498936746897, "properties": {"Name": "Low Brandelhow Derwentwater Ferry Landing"}, "geometry": {"coordinates": [-3.1575498936746897, 54.576118849567855], "type": "Point"}, "type": "Feature"}, {"id": -2.534796856088864, "properties": {"Name": "Leaplish Ferry Landing"}, "geometry": {"coordinates": [-2.534796856088864, 55.18416684138969], "type": "Point"}, "type": "Feature"}, {"id": -1.1429086404250768, "properties": {"Name": "Lerwick Shetland Esplanade Ferry Terminal"}, "geometry": {"coordinates": [-1.1429086404250768, 60.154666895087345], "type": "Point"}, "type": "Feature"}, {"id": -5.63314292056592, "properties": {"Name": "South Cuan Luing Ferry Terminal"}, "geometry": {"coordinates": [-5.63314292056592, 56.266460738567176], "type": "Point"}, "type": "Feature"}, {"id": -4.657874806101256, "properties": {"Name": "Lundy Island Ferry Landing"}, "geometry": {"coordinates": [-4.657874806101256, 51.163385563433316], "type": "Point"}, "type": "Feature"}, {"id": -4.636778295842796, "properties": {"Name": "Luss Pier"}, "geometry": {"coordinates": [-4.636778295842796, 56.102048663643565], "type": "Point"}, "type": "Feature"}, {"id": -0.18357685392990122, "properties": {"Name": "Little Venice Waterbus Stop"}, "geometry": {"coordinates": [-0.18357685392990122, 51.521198413889266], "type": "Point"}, "type": "Feature"}, {"id": -2.506575269003388, "properties": {"Name": "Lydney Harbour"}, "geometry": {"coordinates": [-2.506575269003388, 51.71019534934059], "type": "Point"}, "type": "Feature"}, {"id": -1.528988697752699, "properties": {"Name": "Lymington Pier Ferry Terminal"}, "geometry": {"coordinates": [-1.528988697752699, 50.757334672701056], "type": "Point"}, "type": "Feature"}, {"id": -3.191593705326071, "properties": {"Name": "Lyness Orkney Ferry Terminal"}, "geometry": {"coordinates": [-3.191593705326071, 58.83353956469273], "type": "Point"}, "type": "Feature"}, {"id": -5.24439808478601, "properties": {"Name": "Martins Haven Ferry Landing"}, "geometry": {"coordinates": [-5.24439808478601, 51.73671506251946], "type": "Point"}, "type": "Feature"}, {"id": -6.316462723790525, "properties": {"Name": "St Mary's Isles Of Scilly Ferry Terminal"}, "geometry": {"coordinates": [-6.316462723790525, 49.918327965491386], "type": "Point"}, "type": "Feature"}, {"id": -6.281255758497678, "properties": {"Name": "St Martin's Isles Of Scilly Ferry Landing"}, "geometry": {"coordinates": [-6.281255758497678, 49.95738295411563], "type": "Point"}, "type": "Feature"}, {"id": -5.014406512572891, "properties": {"Name": "St Mawes Ferry Landing"}, "geometry": {"coordinates": [-5.014406512572891, 50.157848900322165], "type": "Point"}, "type": "Feature"}, {"id": -0.12523899751230483, "properties": {"Name": "Millbank Pier"}, "geometry": {"coordinates": [-0.12523899751230483, 51.4921158848367], "type": "Point"}, "type": "Feature"}, {"id": -4.854277510633623, "properties": {"Name": "Gourock McInroy's Point Ferry Terminal"}, "geometry": {"coordinates": [-4.854277510633623, 55.95090734688123], "type": "Point"}, "type": "Feature"}, {"id": -4.782369826818725, "properties": {"Name": "Mevagissey Ferry Landing"}, "geometry": {"coordinates": [-4.782369826818725, 50.26922295016498], "type": "Point"}, "type": "Feature"}, {"id": -5.827552940351338, "properties": {"Name": "Mallaig (for Knoydart) Ferry Terminal"}, "geometry": {"coordinates": [-5.827552940351338, 57.005986987310806], "type": "Point"}, "type": "Feature"}, {"id": -0.021935506677371517, "properties": {"Name": "Masthouse Terrace Pier"}, "geometry": {"coordinates": [-0.021935506677371517, 51.487496190797664], "type": "Point"}, "type": "Feature"}, {"id": -5.036858783080634, "properties": {"Name": "Milford Haven \u2013 Dock Entrance"}, "geometry": {"coordinates": [-5.036858783080634, 51.709609356390416], "type": "Point"}, "type": "Feature"}, {"id": 0.008767536458729802, "properties": {"Name": "North Greenwich Pier"}, "geometry": {"coordinates": [0.008767536458729802, 51.50209096859363], "type": "Point"}, "type": "Feature"}, {"id": -3.472736605952521, "properties": {"Name": "Minehead Harbour"}, "geometry": {"coordinates": [-3.472736605952521, 51.21368878955455], "type": "Point"}, "type": "Feature"}, {"id": -3.054291701286025, "properties": {"Name": "Monk Coniston Ferry Landing"}, "geometry": {"coordinates": [-3.054291701286025, 54.37183469637657], "type": "Point"}, "type": "Feature"}, {"id": -5.828068547506814, "properties": {"Name": "Mallaig (CalMac) Ferry Terminal"}, "geometry": {"coordinates": [-5.828068547506814, 57.00683437173427], "type": "Point"}, "type": "Feature"}, {"id": -5.826539129693996, "properties": {"Name": "Mallaig (CalMac) Ferry Terminal"}, "geometry": {"coordinates": [-5.826539129693996, 57.00702506071337], "type": "Point"}, "type": "Feature"}, {"id": -3.1654918940154424, "properties": {"Name": "Mermaid Quay Waterbus Stop"}, "geometry": {"coordinates": [-3.1654918940154424, 51.462997623924394], "type": "Point"}, "type": "Feature"}, {"id": -0.3631906480977567, "properties": {"Name": "Moulsey - Hurst Park Ferry Landing"}, "geometry": {"coordinates": [-0.3631906480977567, 51.41143802755938], "type": "Point"}, "type": "Feature"}, {"id": -4.9320805186837955, "properties": {"Name": "Millport Pier Ferry Terminal"}, "geometry": {"coordinates": [-4.9320805186837955, 55.75081228191126], "type": "Point"}, "type": "Feature"}, {"id": -1.7430060297496794, "properties": {"Name": "Hengistbury Head Ferry Landing"}, "geometry": {"coordinates": [-1.7430060297496794, 50.72081748681531], "type": "Point"}, "type": "Feature"}, {"id": -1.2272555624033537, "properties": {"Name": "Transporter Bridge North Side"}, "geometry": {"coordinates": [-1.2272555624033537, 54.58506935530817], "type": "Point"}, "type": "Feature"}, {"id": -1.22873601954634, "properties": {"Name": "Transporter Bridge South Side"}, "geometry": {"coordinates": [-1.22873601954634, 54.583694790533386], "type": "Point"}, "type": "Feature"}, {"id": -1.1232467842906033, "properties": {"Name": "Bressay Shetland Ferry Terminal"}, "geometry": {"coordinates": [-1.1232467842906033, 60.15706147915745], "type": "Point"}, "type": "Feature"}, {"id": -1.4495005196657345, "properties": {"Name": "Newcastle International Ferry Terminal"}, "geometry": {"coordinates": [-1.4495005196657345, 54.99264904365829], "type": "Point"}, "type": "Feature"}, {"id": -2.6964985810331408, "properties": {"Name": "Sanday Orkney Ferry Terminal"}, "geometry": {"coordinates": [-2.6964985810331408, 59.190567136529076], "type": "Point"}, "type": "Feature"}, {"id": -0.032898294787064394, "properties": {"Name": "Hilton Docklands Nelson Dock Pier"}, "geometry": {"coordinates": [-0.032898294787064394, 51.50453285248317], "type": "Point"}, "type": "Feature"}, {"id": -4.020322458333242, "properties": {"Name": "Nigg Ferry Terminal"}, "geometry": {"coordinates": [-4.020322458333242, 57.69260321751623], "type": "Point"}, "type": "Feature"}, {"id": 0.0545590257260892, "properties": {"Name": "Newhaven Harbour Ferry Terminal"}, "geometry": {"coordinates": [0.0545590257260892, 50.7902473144405], "type": "Point"}, "type": "Feature"}, {"id": -3.311828026128739, "properties": {"Name": "North Hoy Orkney Ferry Terminal"}, "geometry": {"coordinates": [-3.311828026128739, 58.916217554486735], "type": "Point"}, "type": "Feature"}, {"id": -3.1602636154516515, "properties": {"Name": "Hawes End Derwentwater Ferry Landing"}, "geometry": {"coordinates": [-3.1602636154516515, 54.58124262801692], "type": "Point"}, "type": "Feature"}, {"id": -3.155538589425705, "properties": {"Name": "Nichol End (Derwentwater) Ferry Landing"}, "geometry": {"coordinates": [-3.155538589425705, 54.59524522722666], "type": "Point"}, "type": "Feature"}, {"id": -5.061370676862458, "properties": {"Name": "Falmouth Ntl Maritime Museum Ferry Landing"}, "geometry": {"coordinates": [-5.061370676862458, 50.15171659762061], "type": "Point"}, "type": "Feature"}, {"id": -4.051542726376979, "properties": {"Name": "Noss Mayo Ferry Landing"}, "geometry": {"coordinates": [-4.051542726376979, 50.31191607264563], "type": "Point"}, "type": "Feature"}, {"id": -2.9770640126576113, "properties": {"Name": "Newport (S Wales) Ferry Terminal"}, "geometry": {"coordinates": [-2.9770640126576113, 51.564168220855365], "type": "Point"}, "type": "Feature"}, {"id": -2.4409389515602915, "properties": {"Name": "North Ronaldsay Orkney Ferry Terminal"}, "geometry": {"coordinates": [-2.4409389515602915, 59.35558182148212], "type": "Point"}, "type": "Feature"}, {"id": -1.4445005637009092, "properties": {"Name": "North Shields Ferry Terminal"}, "geometry": {"coordinates": [-1.4445005637009092, 55.003859203520854], "type": "Point"}, "type": "Feature"}, {"id": -4.052662621972225, "properties": {"Name": "Newton Ferrers Ferry Landing"}, "geometry": {"coordinates": [-4.052662621972225, 50.313785112821684], "type": "Point"}, "type": "Feature"}, {"id": -2.0916978345971744, "properties": {"Name": "Aberdeen Ferry Terminal"}, "geometry": {"coordinates": [-2.0916978345971744, 57.144803877693754], "type": "Point"}, "type": "Feature"}, {"id": -4.7117089765402245, "properties": {"Name": "Aberdaron Ferry Landing"}, "geometry": {"coordinates": [-4.7117089765402245, 52.80322780962952], "type": "Point"}, "type": "Feature"}, {"id": -4.6063239399947165, "properties": {"Name": "Arden - Cameron House Pier"}, "geometry": {"coordinates": [-4.6063239399947165, 56.01407299239164], "type": "Point"}, "type": "Feature"}, {"id": -5.444296502793539, "properties": {"Name": "Ardrishaig Pier"}, "geometry": {"coordinates": [-5.444296502793539, 56.01327701971811], "type": "Point"}, "type": "Feature"}, {"id": -4.701254283660143, "properties": {"Name": "Ardleish Pier"}, "geometry": {"coordinates": [-4.701254283660143, 56.29943702327833], "type": "Point"}, "type": "Feature"}, {"id": -6.340585971350445, "properties": {"Name": "St Agnes Isles Of Scilly Ferry Landing"}, "geometry": {"coordinates": [-6.340585971350445, 49.896009794860255], "type": "Point"}, "type": "Feature"}, {"id": -6.524240572809638, "properties": {"Name": "Coll Ferry Terminal"}, "geometry": {"coordinates": [-6.524240572809638, 56.615059073851334], "type": "Point"}, "type": "Feature"}, {"id": -3.3950292780215174, "properties": {"Name": "Town Pier"}, "geometry": {"coordinates": [-3.3950292780215174, 56.00792943751624], "type": "Point"}, "type": "Feature"}, {"id": -5.477256387334089, "properties": {"Name": "Oban Ferry Terminal"}, "geometry": {"coordinates": [-5.477256387334089, 56.411600567041525], "type": "Point"}, "type": "Feature"}, {"id": -5.477481216699158, "properties": {"Name": "Oban Ferry Terminal"}, "geometry": {"coordinates": [-5.477481216699158, 56.4115762763751], "type": "Point"}, "type": "Feature"}, {"id": -0.93699074750689, "properties": {"Name": "Oddsta Shetland Ferry Terminal"}, "geometry": {"coordinates": [-0.93699074750689, 60.62761219104892], "type": "Point"}, "type": "Feature"}, {"id": -5.510265196900019, "properties": {"Name": "Oban Kerrera Ferry"}, "geometry": {"coordinates": [-5.510265196900019, 56.39705799936284], "type": "Point"}, "type": "Feature"}, {"id": -5.473619041836155, "properties": {"Name": "Oban North Pier Ferry Terminal"}, "geometry": {"coordinates": [-5.473619041836155, 56.414750364640405], "type": "Point"}, "type": "Feature"}, {"id": -0.7512069837770144, "properties": {"Name": "Out Skerries Shetland Ferry Terminal"}, "geometry": {"coordinates": [-0.7512069837770144, 60.42265157195132], "type": "Point"}, "type": "Feature"}, {"id": -4.936698967184903, "properties": {"Name": "Padstow Ferry Landing"}, "geometry": {"coordinates": [-4.936698967184903, 50.54277713941924], "type": "Point"}, "type": "Feature"}, {"id": -6.105101654000632, "properties": {"Name": "Port Askaig Islay Ferry Terminal"}, "geometry": {"coordinates": [-6.105101654000632, 55.847706889629166], "type": "Point"}, "type": "Feature"}, {"id": -6.104765854975684, "properties": {"Name": "Port Askaig Islay Ferry Terminal"}, "geometry": {"coordinates": [-6.104765854975684, 55.848311677776906], "type": "Point"}, "type": "Feature"}, {"id": -5.414884075863494, "properties": {"Name": "Port Appin Ferry Terminal"}, "geometry": {"coordinates": [-5.414884075863494, 56.5532677340546], "type": "Point"}, "type": "Feature"}, {"id": -5.316551836835201, "properties": {"Name": "Portavadie Ferry Terminal"}, "geometry": {"coordinates": [-5.316551836835201, 55.876505200379064], "type": "Point"}, "type": "Feature"}, {"id": -4.134139089927635, "properties": {"Name": "Plymouth (Barbican) Landing Stage"}, "geometry": {"coordinates": [-4.134139089927635, 50.365681211952364], "type": "Point"}, "type": "Feature"}, {"id": 1.0213659629572949, "properties": {"Name": "Point Clear Ferry Landing"}, "geometry": {"coordinates": [1.0213659629572949, 51.80275976769432], "type": "Point"}, "type": "Feature"}, {"id": -4.953432964020526, "properties": {"Name": "Pembroke Dock Ferry Terminal"}, "geometry": {"coordinates": [-4.953432964020526, 51.69682604693163], "type": "Point"}, "type": "Feature"}, {"id": -5.528973608360742, "properties": {"Name": "Penzance Ferry Terminal"}, "geometry": {"coordinates": [-5.528973608360742, 50.117364141774196], "type": "Point"}, "type": "Feature"}, {"id": -2.996480867379139, "properties": {"Name": "Liverpool Pier Head Ferry Terminal"}, "geometry": {"coordinates": [-2.996480867379139, 53.4052189505929], "type": "Point"}, "type": "Feature"}, {"id": -4.925847805595758, "properties": {"Name": "Rock Padstow Ferry Landing"}, "geometry": {"coordinates": [-4.925847805595758, 50.54489455276965], "type": "Point"}, "type": "Feature"}, {"id": -3.172390181829443, "properties": {"Name": "Piel Island Ferry Landing"}, "geometry": {"coordinates": [-3.172390181829443, 54.064356130396895], "type": "Point"}, "type": "Feature"}, {"id": -6.189823836597137, "properties": {"Name": "Port Ellen Islay Ferry Terminal"}, "geometry": {"coordinates": [-6.189823836597137, 55.62782402163471], "type": "Point"}, "type": "Feature"}, {"id": -6.189917023970146, "properties": {"Name": "Port Ellen Islay Ferry Terminal"}, "geometry": {"coordinates": [-6.189917023970146, 55.62750604489731], "type": "Point"}, "type": "Feature"}, {"id": -4.291143163718384, "properties": {"Name": "Plantation Quay Ferry Landing"}, "geometry": {"coordinates": [-4.291143163718384, 55.8584880011052], "type": "Point"}, "type": "Feature"}, {"id": -4.156726801603825, "properties": {"Name": "Plymouth Ferry Terminal"}, "geometry": {"coordinates": [-4.156726801603825, 50.36485058523163], "type": "Point"}, "type": "Feature"}, {"id": -4.130190015357879, "properties": {"Name": "Plymouth Mount Batten Ferry Landing"}, "geometry": {"coordinates": [-4.130190015357879, 50.36102260285822], "type": "Point"}, "type": "Feature"}, {"id": -1.0890725977830753, "properties": {"Name": "Portsmouth Continental Ferry Terminal"}, "geometry": {"coordinates": [-1.0890725977830753, 50.81131198398671], "type": "Point"}, "type": "Feature"}, {"id": -1.1092028380340901, "properties": {"Name": "Portsmouth Harbour Station Pier"}, "geometry": {"coordinates": [-1.1092028380340901, 50.79693507894578], "type": "Point"}, "type": "Feature"}, {"id": -3.7635442496998777, "properties": {"Name": "East Portlemouth Ferry Landing"}, "geometry": {"coordinates": [-3.7635442496998777, 50.234949539935236], "type": "Point"}, "type": "Feature"}, {"id": -1.106073011766161, "properties": {"Name": "Portsmouth IOW Car Ferry Terminal"}, "geometry": {"coordinates": [-1.106073011766161, 50.792900367388214], "type": "Point"}, "type": "Feature"}, {"id": -4.634811039206358, "properties": {"Name": "Polruan Ferry Landing"}, "geometry": {"coordinates": [-4.634811039206358, 50.329656979493286], "type": "Point"}, "type": "Feature"}, {"id": -5.087624367937172, "properties": {"Name": "Ponsharden Ferry Landing"}, "geometry": {"coordinates": [-5.087624367937172, 50.16478462228696], "type": "Point"}, "type": "Feature"}, {"id": -1.9854304302258476, "properties": {"Name": "Poole Quay Ferry Landing"}, "geometry": {"coordinates": [-1.9854304302258476, 50.711881743566124], "type": "Point"}, "type": "Feature"}, {"id": -2.827405943317351, "properties": {"Name": "Pooley Bridge Ullswater Ferry Landing"}, "geometry": {"coordinates": [-2.827405943317351, 54.610119984430916], "type": "Point"}, "type": "Feature"}, {"id": -1.9932489794445134, "properties": {"Name": "Poole Ferry Terminal"}, "geometry": {"coordinates": [-1.9932489794445134, 50.708663058861035], "type": "Point"}, "type": "Feature"}, {"id": -4.048544061103002, "properties": {"Name": "Porth Penrhyn Ferry Landing"}, "geometry": {"coordinates": [-4.048544061103002, 52.71508021157988], "type": "Point"}, "type": "Feature"}, {"id": -5.428166212703047, "properties": {"Name": "Port Ramsay Lismore Ferry Terminal"}, "geometry": {"coordinates": [-5.428166212703047, 56.55973429491024], "type": "Point"}, "type": "Feature"}, {"id": -6.190031017143024, "properties": {"Name": "Portree Ferry Terminal"}, "geometry": {"coordinates": [-6.190031017143024, 57.410864991057835], "type": "Point"}, "type": "Feature"}, {"id": -1.6727001986546193, "properties": {"Name": "Papa Stour Shetland Ferry Terminal"}, "geometry": {"coordinates": [-1.6727001986546193, 60.331283913024734], "type": "Point"}, "type": "Feature"}, {"id": -2.7544658802276314, "properties": {"Name": "Portishead Pier"}, "geometry": {"coordinates": [-2.7544658802276314, 51.494867251583294], "type": "Point"}, "type": "Feature"}, {"id": -3.164918165995247, "properties": {"Name": "Penarth Pier"}, "geometry": {"coordinates": [-3.164918165995247, 51.43481354488778], "type": "Point"}, "type": "Feature"}, {"id": -6.2269044131735525, "properties": {"Name": "Muck Ferry Terminal"}, "geometry": {"coordinates": [-6.2269044131735525, 56.833640308392596], "type": "Point"}, "type": "Feature"}, {"id": -6.225329071257917, "properties": {"Name": "Muck Ferry Terminal"}, "geometry": {"coordinates": [-6.225329071257917, 56.832182854063355], "type": "Point"}, "type": "Feature"}, {"id": -0.21577407246716668, "properties": {"Name": "Putney Pier"}, "geometry": {"coordinates": [-0.21577407246716668, 51.46708144085633], "type": "Point"}, "type": "Feature"}, {"id": -2.9739490061476834, "properties": {"Name": "Westray Pierowall Orkney Ferry Terminal"}, "geometry": {"coordinates": [-2.9739490061476834, 59.32370027370455], "type": "Point"}, "type": "Feature"}, {"id": -2.891550703107864, "properties": {"Name": "Papa Westray Orkney Ferry Terminal"}, "geometry": {"coordinates": [-2.891550703107864, 59.326849548523505], "type": "Point"}, "type": "Feature"}, {"id": -6.082453749829982, "properties": {"Name": "Raasay Ferry Terminal"}, "geometry": {"coordinates": [-6.082453749829982, 57.351034137106424], "type": "Point"}, "type": "Feature"}, {"id": -2.8584406940825002, "properties": {"Name": "Rapness Orkney Ferry Terminal"}, "geometry": {"coordinates": [-2.8584406940825002, 59.24869939548557], "type": "Point"}, "type": "Feature"}, {"id": -5.05422792514709, "properties": {"Name": "Rothesay Ferry Terminal"}, "geometry": {"coordinates": [-5.05422792514709, 55.8384863748356], "type": "Point"}, "type": "Feature"}, {"id": -5.053131776893504, "properties": {"Name": "Rothesay Ferry Terminal"}, "geometry": {"coordinates": [-5.053131776893504, 55.83897207660374], "type": "Point"}, "type": "Feature"}, {"id": 1.550233820954075, "properties": {"Name": "Reedham Ferry North"}, "geometry": {"coordinates": [1.550233820954075, 52.55810226698638], "type": "Point"}, "type": "Feature"}, {"id": -4.383138545366132, "properties": {"Name": "Renfrew Ferry Terminal"}, "geometry": {"coordinates": [-4.383138545366132, 55.885590664705404], "type": "Point"}, "type": "Feature"}, {"id": -0.3132428757147082, "properties": {"Name": "Richmond - Ham House Ferry Landing"}, "geometry": {"coordinates": [-0.3132428757147082, 51.44640282441538], "type": "Point"}, "type": "Feature"}, {"id": 1.5506983206342808, "properties": {"Name": "Reedham Ferry South"}, "geometry": {"coordinates": [1.5506983206342808, 52.55745871770889], "type": "Point"}, "type": "Feature"}, {"id": -5.15889680667132, "properties": {"Name": "Rhubodach Bute Ferry Terminal"}, "geometry": {"coordinates": [-5.15889680667132, 55.920687895807944], "type": "Point"}, "type": "Feature"}, {"id": -0.3060673584312942, "properties": {"Name": "Richmond Landing Stage"}, "geometry": {"coordinates": [-0.3060673584312942, 51.45714421237303], "type": "Point"}, "type": "Feature"}, {"id": 1.4141029272427408, "properties": {"Name": "Ramsgate Ferry Terminal"}, "geometry": {"coordinates": [1.4141029272427408, 51.32722230953573], "type": "Point"}, "type": "Feature"}, {"id": -5.332882267671679, "properties": {"Name": "Ramsey Island Ferry Landing"}, "geometry": {"coordinates": [-5.332882267671679, 51.864630648883384], "type": "Point"}, "type": "Feature"}, {"id": -3.174144300297177, "properties": {"Name": "Roa Island Ferry Landing"}, "geometry": {"coordinates": [-3.174144300297177, 54.07345298350283], "type": "Point"}, "type": "Feature"}, {"id": -2.986187289106485, "properties": {"Name": "Rousay Orkney Ferry Terminal"}, "geometry": {"coordinates": [-2.986187289106485, 59.13034361485891], "type": "Point"}, "type": "Feature"}, {"id": -4.643780262516436, "properties": {"Name": "Rowardennan Pier"}, "geometry": {"coordinates": [-4.643780262516436, 56.15230420554208], "type": "Point"}, "type": "Feature"}, {"id": -3.4391449141773016, "properties": {"Name": "Rosyth Ferry Terminal"}, "geometry": {"coordinates": [-3.4391449141773016, 56.023282193183164], "type": "Point"}, "type": "Feature"}, {"id": -0.30840233660670957, "properties": {"Name": "Richmond St. Helena Pier"}, "geometry": {"coordinates": [-0.30840233660670957, 51.458616709002726], "type": "Point"}, "type": "Feature"}, {"id": -4.30604973345038, "properties": {"Name": "Riverside Museum (Glasgow) Ferry Landing"}, "geometry": {"coordinates": [-4.30604973345038, 55.864914170828705], "type": "Point"}, "type": "Feature"}, {"id": -1.1605905358601334, "properties": {"Name": "Ryde Pier Head Ferry Terminal"}, "geometry": {"coordinates": [-1.1605905358601334, 50.739393496252696], "type": "Point"}, "type": "Feature"}, {"id": -1.1582884737974612, "properties": {"Name": "Ryde Hoverport"}, "geometry": {"coordinates": [-1.1582884737974612, 50.73262328581619], "type": "Point"}, "type": "Feature"}, {"id": -3.089639264800794, "properties": {"Name": "Sunny Bank (Coniston) Ferry Landing"}, "geometry": {"coordinates": [-3.089639264800794, 54.32082140234657], "type": "Point"}, "type": "Feature"}, {"id": -5.377630274020095, "properties": {"Name": "Scoraig Ferry Landing"}, "geometry": {"coordinates": [-5.377630274020095, 57.90998110594814], "type": "Point"}, "type": "Feature"}, {"id": -6.110328651596437, "properties": {"Name": "Sconser Isle Of Skye Ferry Terminal"}, "geometry": {"coordinates": [-6.110328651596437, 57.31396696454978], "type": "Point"}, "type": "Feature"}, {"id": -3.5441545419448177, "properties": {"Name": "Scrabster Ferry Terminal"}, "geometry": {"coordinates": [-3.5441545419448177, 58.61135507422627], "type": "Point"}, "type": "Feature"}, {"id": -1.2761772437572358, "properties": {"Name": "Scalloway Shetland Ferry Terminal"}, "geometry": {"coordinates": [-1.2761772437572358, 60.13454020376629], "type": "Point"}, "type": "Feature"}, {"id": -3.5033055981003542, "properties": {"Name": "Shaldon Teignmouth Ferry Landing"}, "geometry": {"coordinates": [-3.5033055981003542, 50.54021466892647], "type": "Point"}, "type": "Feature"}, {"id": -3.0162947560694575, "properties": {"Name": "Seacombe Ferry Terminal"}, "geometry": {"coordinates": [-3.0162947560694575, 53.40977111489646], "type": "Point"}, "type": "Feature"}, {"id": -4.289773234251404, "properties": {"Name": "Glasgow SECC Ferry Landing"}, "geometry": {"coordinates": [-4.289773234251404, 55.859376313989934], "type": "Point"}, "type": "Feature"}, {"id": -4.289741308835245, "properties": {"Name": "Glasgow SECC Ferry Landing"}, "geometry": {"coordinates": [-4.289741308835245, 55.859376908277184], "type": "Point"}, "type": "Feature"}, {"id": -0.12688996089628787, "properties": {"Name": "St George Wharf Pier"}, "geometry": {"coordinates": [-0.12688996089628787, 51.48627912114185], "type": "Point"}, "type": "Feature"}, {"id": -0.4571649720417452, "properties": {"Name": "Shepperton Ferry Landing"}, "geometry": {"coordinates": [-0.4571649720417452, 51.38268730224086], "type": "Point"}, "type": "Feature"}, {"id": -2.482131127954074, "properties": {"Name": "Sharpness Old Docks"}, "geometry": {"coordinates": [-2.482131127954074, 51.72522364013962], "type": "Point"}, "type": "Feature"}, {"id": 1.276455526734783, "properties": {"Name": "Shotley Point Marina Ferry Landing"}, "geometry": {"coordinates": [1.276455526734783, 51.957380755485886], "type": "Point"}, "type": "Feature"}, {"id": 1.2765459724938057, "properties": {"Name": "Shotley Point Marina Ferry Landing"}, "geometry": {"coordinates": [1.2765459724938057, 51.95742320777776], "type": "Point"}, "type": "Feature"}, {"id": -5.282145833929497, "properties": {"Name": "Skomer Island Ferry Landing"}, "geometry": {"coordinates": [-5.282145833929497, 51.73824719804896], "type": "Point"}, "type": "Feature"}, {"id": -3.7662899107000802, "properties": {"Name": "Salcombe Ferry Landing"}, "geometry": {"coordinates": [-3.7662899107000802, 50.2363918647066], "type": "Point"}, "type": "Feature"}, {"id": -2.961714570823083, "properties": {"Name": "St Margarets Hope Ferry Terminal"}, "geometry": {"coordinates": [-2.961714570823083, 58.83224129998612], "type": "Point"}, "type": "Feature"}, {"id": -3.295322305210727, "properties": {"Name": "Stromness Orkney Ferry Terminal"}, "geometry": {"coordinates": [-3.295322305210727, 58.96465971434052], "type": "Point"}, "type": "Feature"}, {"id": -1.4053138451918048, "properties": {"Name": "Southampton Passenger Ferry Terminal"}, "geometry": {"coordinates": [-1.4053138451918048, 50.89439273094649], "type": "Point"}, "type": "Feature"}, {"id": -1.0999505876337434, "properties": {"Name": "Southsea Hoverport"}, "geometry": {"coordinates": [-1.0999505876337434, 50.78515547910275], "type": "Point"}, "type": "Feature"}, {"id": -1.406278299662557, "properties": {"Name": "Southampton Vehicle Ferry Terminal"}, "geometry": {"coordinates": [-1.406278299662557, 50.89570154976913], "type": "Point"}, "type": "Feature"}, {"id": -2.9095669129178314, "properties": {"Name": "Shapinsay Orkney Ferry Terminal"}, "geometry": {"coordinates": [-2.9095669129178314, 59.03132393219758], "type": "Point"}, "type": "Feature"}, {"id": -3.3857491383882774, "properties": {"Name": "South Queensferry Ferry Landing"}, "geometry": {"coordinates": [-3.3857491383882774, 55.99107814371307], "type": "Point"}, "type": "Feature"}, {"id": -3.7842155666505333, "properties": {"Name": "South Sands Ferry Landing"}, "geometry": {"coordinates": [-3.7842155666505333, 50.225234900230404], "type": "Point"}, "type": "Feature"}, {"id": -1.4400533165616738, "properties": {"Name": "South Shields Ferry Terminal"}, "geometry": {"coordinates": [-1.4400533165616738, 54.997638282134425], "type": "Point"}, "type": "Feature"}, {"id": -3.445412457695757, "properties": {"Name": "Starcross Ferry Landing"}, "geometry": {"coordinates": [-3.445412457695757, 50.62683522386723], "type": "Point"}, "type": "Feature"}, {"id": -0.07379666744927323, "properties": {"Name": "St Katharine's Pier"}, "geometry": {"coordinates": [-0.07379666744927323, 51.506137959405294], "type": "Point"}, "type": "Feature"}, {"id": -6.338902848769286, "properties": {"Name": "Staffa Ferry Landing"}, "geometry": {"coordinates": [-6.338902848769286, 56.4322040776017], "type": "Point"}, "type": "Feature"}, {"id": -5.309180618777877, "properties": {"Name": "St. Justinian Ferry Landing"}, "geometry": {"coordinates": [-5.309180618777877, 51.87779374156987], "type": "Point"}, "type": "Feature"}, {"id": -6.387202618103754, "properties": {"Name": "Stornoway Lewis Ferry Terminal"}, "geometry": {"coordinates": [-6.387202618103754, 58.20616196355402], "type": "Point"}, "type": "Feature"}, {"id": -6.387357151223557, "properties": {"Name": "Stornoway Lewis Ferry Terminal"}, "geometry": {"coordinates": [-6.387357151223557, 58.20589583983944], "type": "Point"}, "type": "Feature"}, {"id": -5.023108212056532, "properties": {"Name": "Stranraer Ferry Terminal"}, "geometry": {"coordinates": [-5.023108212056532, 54.90764538173919], "type": "Point"}, "type": "Feature"}, {"id": -2.5978915107314284, "properties": {"Name": "Stronsay Orkney Ferry Terminal"}, "geometry": {"coordinates": [-2.5978915107314284, 59.14261803106653], "type": "Point"}, "type": "Feature"}, {"id": -1.2784973073977353, "properties": {"Name": "Grutness Shetland Ferry Terminal"}, "geometry": {"coordinates": [-1.2784973073977353, 59.87438525757135], "type": "Point"}, "type": "Feature"}, {"id": -3.1668004365012203, "properties": {"Name": "Sovereign Quay Waterbus Stop"}, "geometry": {"coordinates": [-3.1668004365012203, 51.461249162321685], "type": "Point"}, "type": "Feature"}, {"id": -3.926425300253115, "properties": {"Name": "Swansea Queens Dock Ferry Terminal"}, "geometry": {"coordinates": [-3.926425300253115, 51.61266900862385], "type": "Point"}, "type": "Feature"}, {"id": -1.948707739650409, "properties": {"Name": "Sandbanks Ferry Terminal"}, "geometry": {"coordinates": [-1.948707739650409, 50.683409538656214], "type": "Point"}, "type": "Feature"}, {"id": -0.09638413686941315, "properties": {"Name": "Bankside Pier"}, "geometry": {"coordinates": [-0.09638413686941315, 51.508386210144494], "type": "Point"}, "type": "Feature"}, {"id": 1.6678384951248775, "properties": {"Name": "Southwold Ferry Landing"}, "geometry": {"coordinates": [1.6678384951248775, 52.31662871828394], "type": "Point"}, "type": "Feature"}, {"id": -1.0284561900565203, "properties": {"Name": "Whalsay Shetland Ferry Terminal"}, "geometry": {"coordinates": [-1.0284561900565203, 60.341859266817686], "type": "Point"}, "type": "Feature"}, {"id": -0.11994195108802938, "properties": {"Name": "Savoy Pier"}, "geometry": {"coordinates": [-0.11994195108802938, 51.508820167851695], "type": "Point"}, "type": "Feature"}, {"id": -6.798668363580676, "properties": {"Name": "Tarbert (Harris) Ferry Terminal"}, "geometry": {"coordinates": [-6.798668363580676, 57.896848115466696], "type": "Point"}, "type": "Feature"}, {"id": -6.7985267135815715, "properties": {"Name": "Tarbert (Harris) Ferry Terminal"}, "geometry": {"coordinates": [-6.7985267135815715, 57.89679950501129], "type": "Point"}, "type": "Feature"}, {"id": -3.182584965456136, "properties": {"Name": "Taffs Mead Waterbus Stop"}, "geometry": {"coordinates": [-3.182584965456136, 51.474920586056555], "type": "Point"}, "type": "Feature"}, {"id": -4.708070917242408, "properties": {"Name": "Tarbet (Loch Lomond) Pier"}, "geometry": {"coordinates": [-4.708070917242408, 56.202701375669456], "type": "Point"}, "type": "Feature"}, {"id": -5.624539400646779, "properties": {"Name": "Tayvallich (Argyll & Bute) Ferry Terminal"}, "geometry": {"coordinates": [-5.624539400646779, 56.024883418801615], "type": "Point"}, "type": "Feature"}, {"id": -3.5253114241754933, "properties": {"Name": "Torquay Harbour Boarding Pontoon"}, "geometry": {"coordinates": [-3.5253114241754933, 50.458940853339875], "type": "Point"}, "type": "Feature"}, {"id": -5.028599080359791, "properties": {"Name": "Trelisick Ferry Landing"}, "geometry": {"coordinates": [-5.028599080359791, 50.216851338507325], "type": "Point"}, "type": "Feature"}, {"id": -6.331877584121208, "properties": {"Name": "Tresco Isles Of Scilly Ferry Landing"}, "geometry": {"coordinates": [-6.331877584121208, 49.93960900692105], "type": "Point"}, "type": "Feature"}, {"id": -4.697925075354326, "properties": {"Name": "Tenby Ferry Landing"}, "geometry": {"coordinates": [-4.697925075354326, 51.67334292633157], "type": "Point"}, "type": "Feature"}, {"id": -3.4660573927682297, "properties": {"Name": "Turf Lock Inn Ferry Landing"}, "geometry": {"coordinates": [-3.4660573927682297, 50.66327011722124], "type": "Point"}, "type": "Feature"}, {"id": -3.4678919612623345, "properties": {"Name": "Topsham Ferry Landing"}, "geometry": {"coordinates": [-3.4678919612623345, 50.68352695818138], "type": "Point"}, "type": "Feature"}, {"id": -0.31524905489369637, "properties": {"Name": "Twickenham Hammertons Pier"}, "geometry": {"coordinates": [-0.31524905489369637, 51.447025171171525], "type": "Point"}, "type": "Feature"}, {"id": -5.224157477190765, "properties": {"Name": "Tighnabruaich Pier Ferry Terminal"}, "geometry": {"coordinates": [-5.224157477190765, 55.910526617100736], "type": "Point"}, "type": "Feature"}, {"id": 0.366076658199443, "properties": {"Name": "Tilbury Ferry Terminal"}, "geometry": {"coordinates": [0.366076658199443, 51.45071104222043], "type": "Point"}, "type": "Feature"}, {"id": -2.475148616285708, "properties": {"Name": "Tower Knowe Ferry Landing"}, "geometry": {"coordinates": [-2.475148616285708, 55.17602101572741], "type": "Point"}, "type": "Feature"}, {"id": -3.469815832446161, "properties": {"Name": "Topsham Lock Ferry Landing"}, "geometry": {"coordinates": [-3.469815832446161, 50.682126730113325], "type": "Point"}, "type": "Feature"}, {"id": -5.636307860163527, "properties": {"Name": "Tarbet (Loch Nevis) Ferry Landing"}, "geometry": {"coordinates": [-5.636307860163527, 56.9708696115662], "type": "Point"}, "type": "Feature"}, {"id": -0.07908694016526975, "properties": {"Name": "Tower Pier"}, "geometry": {"coordinates": [-0.07908694016526975, 51.507807423934], "type": "Point"}, "type": "Feature"}, {"id": -3.498914653544549, "properties": {"Name": "Teignmouth Ferry Landing"}, "geometry": {"coordinates": [-3.498914653544549, 50.5419350972274], "type": "Point"}, "type": "Feature"}, {"id": -6.063357675576672, "properties": {"Name": "Tobermory Mull Ferry Terminal"}, "geometry": {"coordinates": [-6.063357675576672, 56.62331914748216], "type": "Point"}, "type": "Feature"}, {"id": -1.206925816176494, "properties": {"Name": "Toft Shetland Ferry Terminal"}, "geometry": {"coordinates": [-1.206925816176494, 60.46689746788287], "type": "Point"}, "type": "Feature"}, {"id": -5.0217166046083275, "properties": {"Name": "Tolverne Ferry Landing"}, "geometry": {"coordinates": [-5.0217166046083275, 50.22263503030656], "type": "Point"}, "type": "Feature"}, {"id": -3.526603561559173, "properties": {"Name": "Torquay - North Quay"}, "geometry": {"coordinates": [-3.526603561559173, 50.46012905793996], "type": "Point"}, "type": "Feature"}, {"id": -3.6817316156150293, "properties": {"Name": "Totnes Ferry Landing"}, "geometry": {"coordinates": [-3.6817316156150293, 50.427797719566115], "type": "Point"}, "type": "Feature"}, {"id": -3.39574552816257, "properties": {"Name": "Town Pier"}, "geometry": {"coordinates": [-3.39574552816257, 56.00688798009714], "type": "Point"}, "type": "Feature"}, {"id": -4.192958500281148, "properties": {"Name": "Torpoint Ferry Terminal"}, "geometry": {"coordinates": [-4.192958500281148, 50.37541575422899], "type": "Point"}, "type": "Feature"}, {"id": -6.798923853835806, "properties": {"Name": "Tiree Ferry Terminal"}, "geometry": {"coordinates": [-6.798923853835806, 56.508323517310906], "type": "Point"}, "type": "Feature"}, {"id": -6.79893199544857, "properties": {"Name": "Tiree Ferry Terminal"}, "geometry": {"coordinates": [-6.79893199544857, 56.50967264806385], "type": "Point"}, "type": "Feature"}, {"id": -4.682900415797364, "properties": {"Name": "Troon Ferry Terminal"}, "geometry": {"coordinates": [-4.682900415797364, 55.54910251575293], "type": "Point"}, "type": "Feature"}, {"id": -5.143327455362611, "properties": {"Name": "Tarbet (Scourie) Ferry Landing"}, "geometry": {"coordinates": [-5.143327455362611, 58.38933958359635], "type": "Point"}, "type": "Feature"}, {"id": -3.465857718816072, "properties": {"Name": "Topsham (Turf Lock Ferry) Ferry Landing"}, "geometry": {"coordinates": [-3.465857718816072, 50.68184383834665], "type": "Point"}, "type": "Feature"}, {"id": -1.7903233422103784, "properties": {"Name": "Tuckton Tea Gardens Ferry Landing"}, "geometry": {"coordinates": [-1.7903233422103784, 50.72967093337147], "type": "Point"}, "type": "Feature"}, {"id": -3.075667403019291, "properties": {"Name": "Torver (Coniston) Ferry Landing"}, "geometry": {"coordinates": [-3.075667403019291, 54.34687619848875], "type": "Point"}, "type": "Feature"}, {"id": -3.043453045746168, "properties": {"Name": "Tingwall Orkney Ferry Terminal"}, "geometry": {"coordinates": [-3.043453045746168, 59.088673489576784], "type": "Point"}, "type": "Feature"}, {"id": -5.669113595420989, "properties": {"Name": "Tayinloan Ferry Terminal"}, "geometry": {"coordinates": [-5.669113595420989, 55.65756460241414], "type": "Point"}, "type": "Feature"}, {"id": -6.15325602556493, "properties": {"Name": "Ulva Ferry (Ulva) Ferry Landing"}, "geometry": {"coordinates": [-6.15325602556493, 56.48050277004101], "type": "Point"}, "type": "Feature"}, {"id": -6.376446689182136, "properties": {"Name": "Uig Skye Ferry Terminal"}, "geometry": {"coordinates": [-6.376446689182136, 57.58633974829929], "type": "Point"}, "type": "Feature"}, {"id": -6.373765000096696, "properties": {"Name": "Uig Skye Ferry Terminal"}, "geometry": {"coordinates": [-6.373765000096696, 57.58590215855167], "type": "Point"}, "type": "Feature"}, {"id": -5.1604417868034, "properties": {"Name": "Ullapool Ferry Terminal"}, "geometry": {"coordinates": [-5.1604417868034, 57.89493916011658], "type": "Point"}, "type": "Feature"}, {"id": -5.160274939477446, "properties": {"Name": "Ullapool Ferry Terminal"}, "geometry": {"coordinates": [-5.160274939477446, 57.8949612915575], "type": "Point"}, "type": "Feature"}, {"id": -1.1585962890285064, "properties": {"Name": "Ulsta Shetland Ferry Terminal"}, "geometry": {"coordinates": [-1.1585962890285064, 60.496114851033376], "type": "Point"}, "type": "Feature"}, {"id": -6.14984255565132, "properties": {"Name": "Ulva Ferry (Mull) Ferry Landing"}, "geometry": {"coordinates": [-6.14984255565132, 56.4816872704303], "type": "Point"}, "type": "Feature"}, {"id": -1.1293727756446028, "properties": {"Name": "Vidlin Shetland Ferry Terminal"}, "geometry": {"coordinates": [-1.1293727756446028, 60.37279030628557], "type": "Point"}, "type": "Feature"}, {"id": 0.7951651667918913, "properties": {"Name": "Wallasea Island Ferry Landing"}, "geometry": {"coordinates": [0.7951651667918913, 51.623044664477916], "type": "Point"}, "type": "Feature"}, {"id": -1.3074875690329537, "properties": {"Name": "Warsash Ferry Landing"}, "geometry": {"coordinates": [-1.3074875690329537, 50.85516763183998], "type": "Point"}, "type": "Feature"}, {"id": 0.07057004343453634, "properties": {"Name": "Woolwich Arsenal Pier"}, "geometry": {"coordinates": [0.07057004343453634, 51.4951617163607], "type": "Point"}, "type": "Feature"}, {"id": -3.0612876325086273, "properties": {"Name": "Waterhead Hotel (Coniston) Ferry Landing"}, "geometry": {"coordinates": [-3.0612876325086273, 54.36734249841698], "type": "Point"}, "type": "Feature"}, {"id": -1.5398999100430726, "properties": {"Name": "West Burrafirth Shetland Ferry Terminal"}, "geometry": {"coordinates": [-1.5398999100430726, 60.29553285366614], "type": "Point"}, "type": "Feature"}, {"id": -2.448501409538549, "properties": {"Name": "Weymouth Ferry Terminal"}, "geometry": {"coordinates": [-2.448501409538549, 50.60829398930187], "type": "Point"}, "type": "Feature"}, {"id": -1.7807622489359356, "properties": {"Name": "Wick Christchurch Ferry Landing"}, "geometry": {"coordinates": [-1.7807622489359356, 50.729086832894986], "type": "Point"}, "type": "Feature"}, {"id": 1.667595985149674, "properties": {"Name": "Walberswick Ferry Landing"}, "geometry": {"coordinates": [1.667595985149674, 52.315826719354824], "type": "Point"}, "type": "Feature"}, {"id": 0.3890834763706248, "properties": {"Name": "West Lynn Ferry Landing"}, "geometry": {"coordinates": [0.3890834763706248, 52.75630767519704], "type": "Point"}, "type": "Feature"}, {"id": -1.5684134857499754, "properties": {"Name": "Walls Shetland Ferry Terminal"}, "geometry": {"coordinates": [-1.5684134857499754, 60.22378032186158], "type": "Point"}, "type": "Feature"}, {"id": -4.890808884399479, "properties": {"Name": "Wemyss Bay Ferry Terminal"}, "geometry": {"coordinates": [-4.890808884399479, 55.87574254321911], "type": "Point"}, "type": "Feature"}, {"id": -4.891100869050348, "properties": {"Name": "Wemyss Bay Ferry Terminal"}, "geometry": {"coordinates": [-4.891100869050348, 55.875798604150276], "type": "Point"}, "type": "Feature"}, {"id": -0.11943613995297321, "properties": {"Name": "London Eye Pier"}, "geometry": {"coordinates": [-0.11943613995297321, 51.50360537758778], "type": "Point"}, "type": "Feature"}, {"id": -0.1237419529387774, "properties": {"Name": "Westminster Pier"}, "geometry": {"coordinates": [-0.1237419529387774, 51.50156109550627], "type": "Point"}, "type": "Feature"}, {"id": -3.0099700674766257, "properties": {"Name": "Woodside Birkenhead Ferry Terminal"}, "geometry": {"coordinates": [-3.0099700674766257, 53.394903121127875], "type": "Point"}, "type": "Feature"}, {"id": -3.087245450509004, "properties": {"Name": "Water Park (Coniston) Ferry Landing"}, "geometry": {"coordinates": [-3.087245450509004, 54.30467413797265], "type": "Point"}, "type": "Feature"}, {"id": -4.0550106250115014, "properties": {"Name": "Warren Point Ferry Landing"}, "geometry": {"coordinates": [-4.0550106250115014, 50.311557983521595], "type": "Point"}, "type": "Feature"}, {"id": -0.19901255312819224, "properties": {"Name": "Wandsworth Riverside Quarter Pier"}, "geometry": {"coordinates": [-0.19901255312819224, 51.4627695519393], "type": "Point"}, "type": "Feature"}, {"id": -2.9890337999942216, "properties": {"Name": "Weston-super-Mare Knightstone Harbour"}, "geometry": {"coordinates": [-2.9890337999942216, 51.35091664612175], "type": "Point"}, "type": "Feature"}, {"id": 0.06077551728494801, "properties": {"Name": "Woolwich Ferry North Pier"}, "geometry": {"coordinates": [0.06077551728494801, 51.4977623071347], "type": "Point"}, "type": "Feature"}, {"id": 0.06208473555770832, "properties": {"Name": "Woolwich Ferry South Pier"}, "geometry": {"coordinates": [0.06208473555770832, 51.49516735823231], "type": "Point"}, "type": "Feature"}, {"id": -0.4566224563439519, "properties": {"Name": "Weybridge Ferry Landing"}, "geometry": {"coordinates": [-0.4566224563439519, 51.38172696756975], "type": "Point"}, "type": "Feature"}, {"id": -2.972489875603461, "properties": {"Name": "Wyre Orkney Ferry Terminal"}, "geometry": {"coordinates": [-2.972489875603461, 59.12483393570008], "type": "Point"}, "type": "Feature"}, {"id": -1.5004964768528077, "properties": {"Name": "Yarmouth IOW Ferry Terminal"}, "geometry": {"coordinates": [-1.5004964768528077, 50.70633537813593], "type": "Point"}, "type": "Feature"}, {"id": -4.381200241999327, "properties": {"Name": "Yoker Ferry Terminal"}, "geometry": {"coordinates": [-4.381200241999327, 55.88710217619039], "type": "Point"}, "type": "Feature"}, {"id": -4.164424764762018, "properties": {"Name": "Plymouth Stonehouse Ferry Terminal"}, "geometry": {"coordinates": [-4.164424764762018, 50.365606946853255], "type": "Point"}, "type": "Feature"}], "type": "FeatureCollection"}